time(millisecond),datetime(utc),latitude,longitude,height_above_takeoff(meters),altitude_above_seaLevel(meters),speed(m/s),distance(meters),max_altitude(meters),max_ascent(meters),max_speed(m/s), xSpeed(m/s), ySpeed(m/s), zSpeed(m/s), compass_heading(degrees), pitch(degrees), roll(degrees),isVideo,gimbal_heading(degrees),gimbal_pitch(degrees),altitude(meters),flycState,message
861300,5:34:35 PM,40.99474727,20.79843476,26.8,740.6112793,0,153.513,740.8112793,27,9.31,0,0,0,217.3,-1.9,-1.3,1,217.4,-54.1,740.6112793,P-GPS,
861400,5:34:35 PM,40.99474742,20.79843472,26.8,740.6112793,0,153.521,740.8112793,27,9.31,0,0,0,217.2,-1.8,-1.2,1,217.4,-54.1,740.6112793,P-GPS,
861500,5:34:35 PM,40.99474753,20.79843468,26.8,740.6112793,0,153.528,740.8112793,27,9.31,0,0,0,217.2,-1.8,-1,1,217.4,-54.1,740.6112793,P-GPS,
861600,5:34:35 PM,40.99474761,20.79843458,26.8,740.6112793,0,153.538,740.8112793,27,9.31,0,0,0,217.2,-1.8,-1,1,217.4,-54.1,740.6112793,P-GPS,
861700,5:34:35 PM,40.99474766,20.7984345,26.8,740.6112793,0,153.546,740.8112793,27,9.31,0,0,0,217.1,-1.6,-1.1,1,217.4,-54.1,740.6112793,P-GPS,
861800,5:34:35 PM,40.99474774,20.79843441,26.8,740.6112793,0,153.556,740.8112793,27,9.31,0,0,0,217.3,-1.5,-1,1,217.4,-54.1,740.6112793,P-GPS,
861900,5:34:35 PM,40.9947478,20.79843434,26.8,740.6112793,0,153.563,740.8112793,27,9.31,0,0,0,217.3,-1.6,-1.1,1,217.4,-54.1,740.6112793,P-GPS,
862000,5:34:35 PM,40.99474786,20.79843423,26.8,740.6112793,0,153.574,740.8112793,27,9.31,0,0,0,217.2,-1.6,-1.1,1,217.4,-54.1,740.6112793,P-GPS,
862100,5:34:36 PM,40.9947479,20.79843414,26.8,740.6112793,0,153.583,740.8112793,27,9.31,0,0,0,217.2,-1.4,-0.7,1,217.4,-54.1,740.6112793,P-GPS,
862200,5:34:36 PM,40.99474795,20.79843401,26.8,740.6112793,0,153.594,740.8112793,27,9.31,0,0,0,217.2,-1.5,0.3,1,217.4,-54.1,740.6112793,P-GPS,
862300,5:34:36 PM,40.994748,20.79843389,26.8,740.6112793,0,153.605,740.8112793,27,9.31,0,0,0,217.1,-1.5,2.3,1,217.4,-54.1,740.6112793,P-GPS,
862400,5:34:36 PM,40.99474809,20.7984337,26.8,740.6112793,0,153.624,740.8112793,27,9.31,0,0,0,217.2,-1.4,3.8,1,217.4,-54.1,740.6112793,P-GPS,
862500,5:34:36 PM,40.9947482,20.79843346,26.8,740.6112793,0.1,153.646,740.8112793,27,9.31,0,-0.1,0,217,-1.3,7.5,1,217.4,-54.1,740.6112793,P-GPS,
862600,5:34:36 PM,40.99474845,20.79843308,26.8,740.6112793,0.28,153.685,740.8112793,27,9.31,0.2,-0.2,0,217.1,-1.4,13.5,1,217.4,-54.1,740.6112793,P-GPS,
862700,5:34:36 PM,40.99474881,20.7984325,26.8,740.6112793,0.58,153.742,740.8112793,27,9.31,0.3,-0.5,0,217,-1.3,16.8,1,217.4,-54.1,740.6112793,P-GPS,
862800,5:34:36 PM,40.99474936,20.79843158,26.8,740.6112793,0.86,153.834,740.8112793,27,9.31,0.5,-0.7,0,216.9,-1.4,19.3,1,217.4,-54.1,740.6112793,P-GPS,
862900,5:34:36 PM,40.99475006,20.79843036,26.8,740.6112793,1.22,153.953,740.8112793,27,9.31,0.7,-1,0,216.8,-1.5,21.4,1,217.4,-54.1,740.6112793,P-GPS,
863000,5:34:36 PM,40.99475103,20.79842866,26.8,740.6112793,1.64,154.12,740.8112793,27,9.31,1,-1.3,0,216.6,-1.6,22.5,1,217.4,-54.1,740.6112793,P-GPS,
863100,5:34:37 PM,40.99475216,20.79842662,26.8,740.6112793,2.08,154.318,740.8112793,27,9.31,1.2,-1.7,0,216.5,-1.3,22.8,1,217.4,-54.1,740.6112793,P-GPS,
863200,5:34:37 PM,40.99475358,20.79842402,26.8,740.6112793,2.44,154.572,740.8112793,27,9.31,1.4,-2,0,216.5,-1.1,20.4,1,217.4,-54.1,740.6112793,P-GPS,
863300,5:34:37 PM,40.99475514,20.79842114,26.8,740.6112793,2.8,154.852,740.8112793,27,9.31,1.6,-2.3,0,216.6,-1.3,17.9,1,217.4,-54.1,740.6112793,P-GPS,
863400,5:34:37 PM,40.99475692,20.79841783,26.8,740.6112793,3.08,155.173,740.8112793,27,9.31,1.8,-2.5,0,216.7,-1.3,16,1,217.4,-54.1,740.6112793,P-GPS,
863500,5:34:37 PM,40.99475878,20.79841438,26.8,740.6112793,3.3,155.508,740.8112793,27,9.31,1.9,-2.7,0,216.9,-1,15,1,217.4,-54.1,740.6112793,P-GPS,
863600,5:34:37 PM,40.99476078,20.79841066,26.8,740.6112793,3.52,155.87,740.8112793,27,9.31,2,-2.9,0,216.9,-1,14.9,1,217.4,-54.1,740.6112793,P-GPS,
863700,5:34:37 PM,40.99476284,20.79840683,26.8,740.6112793,3.8,156.242,740.8112793,27,9.31,2.2,-3.1,0,217,-0.7,15,1,217.4,-54.1,740.6112793,P-GPS,
863800,5:34:37 PM,40.99476499,20.79840285,26.8,740.6112793,3.8,156.63,740.8112793,27,9.31,2.3,-3.2,0,217,-0.6,15,1,217.4,-54.1,740.6112793,P-GPS,
863900,5:34:37 PM,40.99476721,20.79839874,26.9,740.7112793,4.16,157.03,740.8112793,27,9.31,2.4,-3.4,0,217.1,-0.7,13.8,1,217.4,-54.1,740.7112793,P-GPS,
864000,5:34:37 PM,40.99476953,20.79839453,26.9,740.7112793,4.3,157.441,740.8112793,27,9.31,2.5,-3.5,0,217.3,-0.8,11,1,217.4,-54.1,740.7112793,P-GPS,
864100,5:34:37 PM,40.99477192,20.79839024,26.9,740.7112793,4.36,157.861,740.8112793,27,9.31,2.6,-3.5,0,217.4,-0.7,8.9,1,217.4,-54.1,740.7112793,P-GPS,
864200,5:34:38 PM,40.99477435,20.79838591,26.9,740.7112793,4.44,158.285,740.8112793,27,9.31,2.6,-3.6,0,217.5,-0.5,7.8,1,217.4,-54.1,740.7112793,P-GPS,
864300,5:34:38 PM,40.99477682,20.79838155,26.9,740.7112793,4.44,158.714,740.8112793,27,9.31,2.6,-3.6,0,217.4,-0.7,7.7,1,217.2,-54.1,740.7112793,P-GPS,
864400,5:34:38 PM,40.99477928,20.79837726,26.9,740.7112793,4.5,159.137,740.8112793,27,9.31,2.7,-3.6,0,217.2,-1,7,1,217.2,-54.1,740.7112793,P-GPS,
864500,5:34:38 PM,40.99478177,20.79837293,26.9,740.7112793,4.5,159.564,740.8112793,27,9.31,2.7,-3.6,0.1,217.1,-1.1,6.1,1,217.2,-54.1,740.7112793,P-GPS,
864600,5:34:38 PM,40.99478427,20.79836871,26.9,740.7112793,4.5,159.983,740.8112793,27,9.31,2.7,-3.6,0,217.1,-1.3,5.7,1,217.2,-54.1,740.7112793,P-GPS,
864700,5:34:38 PM,40.99478679,20.79836443,26.9,740.7112793,4.5,160.407,740.8112793,27,9.31,2.7,-3.6,0.1,217,-1.4,5.1,1,217.2,-54.1,740.7112793,P-GPS,
864800,5:34:38 PM,40.99478933,20.79836015,26.9,740.7112793,4.5,160.833,740.8112793,27,9.31,2.7,-3.6,0.1,217,-1.5,4.6,1,217.2,-54.1,740.7112793,P-GPS,
864900,5:34:38 PM,40.99479186,20.79835582,26.9,740.7112793,4.5,161.261,740.8112793,27,9.31,2.7,-3.6,0.1,217.1,-1.4,4.3,1,217.2,-54.1,740.7112793,P-GPS,
865000,5:34:38 PM,40.99479431,20.7983516,26.9,740.7112793,4.42,161.679,740.8112793,27,9.31,2.7,-3.5,0.1,217.1,-1.2,4.1,1,217.1,-54.1,740.7112793,P-GPS,
865100,5:34:38 PM,40.99479676,20.79834738,26.9,740.7112793,4.42,162.097,740.8112793,27,9.31,2.7,-3.5,0.1,217.1,-1.2,4,1,216.9,-54.1,740.7112793,P-GPS,
865200,5:34:39 PM,40.99479915,20.79834324,26.9,740.7112793,4.42,162.507,740.8112793,27,9.31,2.7,-3.5,0.1,217,-1.2,3.6,1,216.7,-54.1,740.7112793,P-GPS,
865300,5:34:39 PM,40.99480154,20.7983391,26.9,740.7112793,4.36,162.917,740.8112793,27,9.31,2.6,-3.5,0.1,216.7,-1.4,3.5,1,216.4,-54.1,740.7112793,P-GPS,
865400,5:34:39 PM,40.99480393,20.798335,26.9,740.7112793,4.28,163.324,740.8112793,27,9.31,2.6,-3.4,0.1,216.4,-1.3,3.5,1,216.1,-54.1,740.7112793,P-GPS,
865500,5:34:39 PM,40.99480632,20.7983309,26.9,740.7112793,4.28,163.731,740.8112793,27,9.31,2.6,-3.4,0.1,216.2,-1.3,3.3,1,215.9,-54.1,740.7112793,P-GPS,
865600,5:34:39 PM,40.99480869,20.7983268,26.9,740.7112793,4.28,164.138,740.8112793,27,9.31,2.6,-3.4,0.1,215.9,-1.6,3.3,1,215.7,-54.1,740.7112793,P-GPS,
865700,5:34:39 PM,40.99481105,20.7983227,26.9,740.7112793,4.28,164.544,740.8112793,27,9.31,2.6,-3.4,0.1,215.7,-1.6,3.1,1,215.5,-54.1,740.7112793,P-GPS,
865800,5:34:39 PM,40.99481341,20.79831862,26.9,740.7112793,4.2,164.948,740.8112793,27,9.31,2.6,-3.3,0.1,215.5,-1.5,3,1,215.4,-54.1,740.7112793,P-GPS,
865900,5:34:39 PM,40.99481575,20.79831457,26.9,740.7112793,4.14,165.35,740.8112793,27,9.31,2.5,-3.3,0.1,215.4,-1.3,2.5,1,215.3,-54.1,740.7112793,P-GPS,
866000,5:34:39 PM,40.99481808,20.79831059,26.9,740.7112793,4.14,165.746,740.8112793,27,9.31,2.5,-3.3,0.1,215.3,-1.3,2.7,1,215.3,-54.1,740.7112793,P-GPS,
866100,5:34:40 PM,40.99482038,20.79830663,26.9,740.7112793,4.14,166.139,740.8112793,27,9.31,2.5,-3.3,0,215.2,-1.3,2.4,1,215.2,-54.1,740.7112793,P-GPS,
866200,5:34:40 PM,40.99482271,20.79830268,26.9,740.7112793,4.06,166.534,740.8112793,27,9.31,2.5,-3.2,0,215.1,-1.6,2.5,1,215.1,-54.1,740.7112793,P-GPS,
866300,5:34:40 PM,40.99482502,20.79829875,26.9,740.7112793,4.06,166.925,740.8112793,27,9.31,2.5,-3.2,0.1,215,-1.6,2.6,1,215,-54.1,740.7112793,P-GPS,
866400,5:34:40 PM,40.99482736,20.79829486,26.9,740.7112793,4.06,167.315,740.8112793,27,9.31,2.5,-3.2,0.1,215,-1.7,2.2,1,214.8,-54.1,740.7112793,P-GPS,
866500,5:34:40 PM,40.99482966,20.798291,26.9,740.7112793,4,167.701,740.8112793,27,9.31,2.4,-3.2,0.1,214.8,-1.9,2.2,1,214.3,-54.1,740.7112793,P-GPS,
866600,5:34:40 PM,40.99483197,20.79828711,26.9,740.7112793,3.92,168.09,740.8112793,27,9.31,2.4,-3.1,0.1,214.4,-2,2.1,1,213.8,-54.1,740.7112793,P-GPS,
866700,5:34:40 PM,40.99483422,20.79828325,26.9,740.7112793,3.92,168.475,740.8112793,27,9.31,2.4,-3.1,0.1,214,-2.2,2.1,1,213.3,-54.1,740.7112793,P-GPS,
866800,5:34:40 PM,40.99483644,20.79827939,26.9,740.7112793,3.86,168.858,740.8112793,27,9.31,2.3,-3.1,0.1,213.5,-1.8,1.8,1,212.7,-54.1,740.7112793,P-GPS,
866900,5:34:40 PM,40.99483859,20.79827558,26.9,740.7112793,3.86,169.236,740.8112793,27,9.31,2.3,-3.1,0,213.1,-1.6,2.3,1,212.2,-54.1,740.7112793,P-GPS,
867000,5:34:40 PM,40.99484071,20.79827175,26.9,740.7112793,3.86,169.614,740.8112793,27,9.31,2.3,-3.1,0,212.5,-1.6,2.3,1,211.6,-54.1,740.7112793,P-GPS,
867100,5:34:41 PM,40.9948428,20.79826797,26.9,740.7112793,3.78,169.987,740.8112793,27,9.31,2.3,-3,0,212,-1.7,2.3,1,211,-54.1,740.7112793,P-GPS,
867200,5:34:41 PM,40.9948449,20.79826421,26.9,740.7112793,3.78,170.36,740.8112793,27,9.31,2.3,-3,0,211.4,-1.9,2.4,1,210.6,-54.1,740.7112793,P-GPS,
867300,5:34:41 PM,40.99484697,20.79826049,26.9,740.7112793,3.72,170.727,740.8112793,27,9.31,2.2,-3,0.1,210.9,-2,2.2,1,210.1,-54.1,740.7112793,P-GPS,
867400,5:34:41 PM,40.99484909,20.79825669,26.9,740.7112793,3.72,171.104,740.8112793,27,9.31,2.2,-3,0,210.4,-2.1,2.3,1,209.8,-54.1,740.7112793,P-GPS,
867500,5:34:41 PM,40.99485115,20.79825294,26.9,740.7112793,3.72,171.474,740.8112793,27,9.31,2.2,-3,0,210,-2.1,2.4,1,209.5,-54.1,740.7112793,P-GPS,
867600,5:34:41 PM,40.99485321,20.79824927,26.9,740.7112793,3.64,171.838,740.8112793,27,9.31,2.2,-2.9,0,209.6,-2.2,2.5,1,209.3,-54.1,740.7112793,P-GPS,
867700,5:34:41 PM,40.9948552,20.79824563,26.9,740.7112793,3.58,172.197,740.8112793,27,9.31,2.1,-2.9,0.1,209.3,-2.2,2.6,1,209.2,-54.1,740.7112793,P-GPS,
867800,5:34:41 PM,40.99485719,20.79824202,27,740.8112793,3.58,172.554,740.8112793,27,9.31,2.1,-2.9,0.1,209.2,-2.2,2.8,1,209,-54.1,740.8112793,P-GPS,
867900,5:34:41 PM,40.99485913,20.7982384,27,740.8112793,3.58,172.909,740.8112793,27,9.31,2.1,-2.9,0.1,209,-2.1,3.6,1,208.8,-54.1,740.8112793,P-GPS,
868000,5:34:41 PM,40.9948611,20.79823477,27,740.8112793,3.58,173.268,740.8112793,27,9.31,2.1,-3,0.1,208.8,-1.9,5.2,1,208.4,-54.1,740.8112793,P-GPS,
868100,5:34:42 PM,40.99486304,20.79823111,27,740.8112793,3.66,173.627,740.8112793,27,9.31,2.1,-3,0,208.6,-2,5.8,1,208,-54.1,740.8112793,P-GPS,
868200,5:34:42 PM,40.99486504,20.79822738,27,740.8112793,3.66,173.994,740.8112793,27,9.31,2.1,-3,0,208.2,-2.1,6.2,1,207.6,-54.1,740.8112793,P-GPS,
868300,5:34:42 PM,40.994867,20.7982236,27,740.8112793,3.74,174.364,740.8112793,27,9.31,2.1,-3.1,0.1,207.8,-2.1,6.5,1,207.3,-54.1,740.8112793,P-GPS,
868400,5:34:42 PM,40.99486903,20.79821973,27,740.8112793,3.83,174.743,740.8112793,27,9.31,2.1,-3.2,0.1,207.4,-2.1,6.7,1,207,-54.1,740.8112793,P-GPS,
868500,5:34:42 PM,40.99487103,20.7982158,27,740.8112793,3.83,175.126,740.8112793,27,9.31,2.1,-3.2,0,207.1,-2,6.5,1,206.8,-54.1,740.8112793,P-GPS,
868600,5:34:42 PM,40.99487308,20.7982118,27,740.8112793,3.91,175.517,740.8112793,27,9.31,2.1,-3.3,0,206.8,-2.1,6.3,1,206.6,-54.1,740.8112793,P-GPS,
868700,5:34:42 PM,40.99487509,20.79820775,27,740.8112793,3.91,175.91,740.8112793,27,9.31,2.1,-3.3,0,206.6,-2,6.2,1,206.4,-54.1,740.8112793,P-GPS,
868800,5:34:42 PM,40.99487714,20.79820363,27,740.8112793,4,176.31,740.8112793,27,9.31,2.1,-3.4,0,206.4,-2,5.7,1,206.3,-54.1,740.8112793,P-GPS,
868900,5:34:42 PM,40.99487914,20.79819949,27,740.8112793,4,176.711,740.8112793,27,9.31,2.1,-3.4,0,206.3,-2,5,1,206.2,-54.1,740.8112793,P-GPS,
869000,5:34:42 PM,40.99488117,20.79819528,27,740.8112793,4,177.117,740.8112793,27,9.31,2.1,-3.4,0,206.2,-2,4.6,1,206,-54.1,740.8112793,P-GPS,
869100,5:34:42 PM,40.99488314,20.79819107,27,740.8112793,4,177.522,740.8112793,27,9.31,2.1,-3.4,0,206.1,-2,4.3,1,206,-54.1,740.8112793,P-GPS,
869200,5:34:43 PM,40.99488517,20.79818687,27,740.8112793,4,177.928,740.8112793,27,9.31,2.1,-3.4,0.1,205.9,-2,4.1,1,205.9,-54.1,740.8112793,P-GPS,
869300,5:34:43 PM,40.99488715,20.79818269,27,740.8112793,3.94,178.331,740.8112793,27,9.31,2,-3.4,0.1,205.8,-2.1,3.9,1,205.6,-54.1,740.8112793,P-GPS,
869400,5:34:43 PM,40.99488911,20.79817851,27,740.8112793,3.94,178.733,740.8112793,27,9.31,2,-3.4,0.1,205.8,-2.4,3.8,1,205.6,-54.1,740.8112793,P-GPS,
869500,5:34:43 PM,40.994891,20.79817433,27,740.8112793,3.94,179.133,740.8112793,27,9.31,2,-3.4,0.1,205.7,-2.3,3.7,1,205.5,-54.1,740.8112793,P-GPS,
869600,5:34:43 PM,40.99489288,20.79817017,27,740.8112793,3.94,179.531,740.8112793,27,9.31,2,-3.4,0.1,205.5,-2.1,3.7,1,205.1,-54.1,740.8112793,P-GPS,
869700,5:34:43 PM,40.99489471,20.798166,27,740.8112793,3.89,179.928,740.8112793,27,9.31,1.9,-3.4,0.1,205.3,-2.1,3.7,1,204.9,-54.1,740.8112793,P-GPS,
869800,5:34:43 PM,40.99489654,20.79816185,27.1,740.9112793,3.89,180.323,740.9112793,27.1,9.31,1.9,-3.4,0.1,205.2,-1.9,3.8,1,204.7,-54.1,740.9112793,P-GPS,
869900,5:34:43 PM,40.99489831,20.79815769,27,740.8112793,3.89,180.717,740.9112793,27.1,9.31,1.9,-3.4,0.1,205,-1.8,3.8,1,204.7,-54.1,740.8112793,P-GPS,
870000,5:34:43 PM,40.99490013,20.79815345,27,740.8112793,3.85,181.119,740.9112793,27.1,9.31,1.8,-3.4,0.1,204.9,-1.7,3.8,1,204.5,-54.1,740.8112793,P-GPS,
870100,5:34:44 PM,40.99490189,20.79814922,27,740.8112793,3.85,181.519,740.9112793,27.1,9.31,1.8,-3.4,0.1,204.6,-1.7,3.7,1,204,-54.1,740.8112793,P-GPS,
870200,5:34:44 PM,40.99490365,20.79814511,27,740.8112793,3.85,181.909,740.9112793,27.1,9.31,1.8,-3.4,0.1,204.4,-1.7,3.8,1,203.8,-54.1,740.8112793,P-GPS,
870300,5:34:44 PM,40.99490537,20.79814101,27,740.8112793,3.85,182.296,740.9112793,27.1,9.31,1.8,-3.4,0.1,204.2,-1.6,3.8,1,203.6,-54.1,740.8112793,P-GPS,
870400,5:34:44 PM,40.99490716,20.79813693,27,740.8112793,3.85,182.685,740.9112793,27.1,9.31,1.8,-3.4,0.1,204,-1.5,3.9,1,203.4,-54.1,740.8112793,P-GPS,
870500,5:34:44 PM,40.99490889,20.79813283,27,740.8112793,3.85,183.073,740.9112793,27.1,9.31,1.8,-3.4,0.1,203.7,-1.5,3.8,1,203.2,-54.1,740.8112793,P-GPS,
870600,5:34:44 PM,40.99491063,20.79812869,27,740.8112793,3.8,183.464,740.9112793,27.1,9.31,1.7,-3.4,0.1,203.5,-1.5,3.9,1,202.8,-54.1,740.8112793,P-GPS,
870700,5:34:44 PM,40.99491231,20.79812455,27,740.8112793,3.8,183.854,740.9112793,27.1,9.31,1.7,-3.4,0.1,203.2,-1.4,4.1,1,202.2,-54.1,740.8112793,P-GPS,
870800,5:34:44 PM,40.99491397,20.79812036,27,740.8112793,3.8,184.246,740.9112793,27.1,9.31,1.7,-3.4,0.1,202.8,-1.4,4,1,201.6,-54.1,740.8112793,P-GPS,
870900,5:34:44 PM,40.9949156,20.79811619,27,740.8112793,3.8,184.636,740.9112793,27.1,9.31,1.7,-3.4,0.1,202.4,-1.4,4,1,200.9,-54.1,740.8112793,P-GPS,
871000,5:34:44 PM,40.99491726,20.79811195,27,740.8112793,3.8,185.033,740.9112793,27.1,9.31,1.7,-3.4,0.2,201.8,-1.6,4.1,1,200.1,-54.1,740.8112793,P-GPS,
871100,5:34:45 PM,40.9949189,20.79810774,27,740.8112793,3.8,185.426,740.9112793,27.1,9.31,1.7,-3.4,0.2,201.1,-1.8,4,1,200.1,-54.1,740.8112793,P-GPS,
871200,5:34:45 PM,40.99492056,20.7981035,27,740.8112793,3.8,185.823,740.9112793,27.1,9.31,1.7,-3.4,0.1,200.4,-2.4,4.2,1,198.7,-54.1,740.8112793,P-GPS,
871300,5:34:45 PM,40.99492217,20.79809928,27,740.8112793,3.8,186.217,740.9112793,27.1,9.31,1.7,-3.4,0.1,199.7,-2.5,4.1,1,197.9,-54.1,740.8112793,P-GPS,
871400,5:34:45 PM,40.99492377,20.79809505,27,740.8112793,3.76,186.61,740.9112793,27.1,9.31,1.6,-3.4,0.1,199,-2.5,4.7,1,197.2,-54.1,740.8112793,P-GPS,
871500,5:34:45 PM,40.9949253,20.79809084,27,740.8112793,3.76,187,740.9112793,27.1,9.31,1.6,-3.4,0.1,198.2,-2.3,6.4,1,196.5,-54.1,740.8112793,P-GPS,
871600,5:34:45 PM,40.99492683,20.79808649,27,740.8112793,3.85,187.4,740.9112793,27.1,9.31,1.6,-3.5,0.1,197.5,-2.2,7.1,1,196.1,-54.1,740.8112793,P-GPS,
871700,5:34:45 PM,40.99492831,20.7980821,27,740.8112793,3.94,187.802,740.9112793,27.1,9.31,1.6,-3.6,0.1,196.9,-2.1,7.3,1,195.9,-54.1,740.8112793,P-GPS,
871800,5:34:45 PM,40.99492976,20.79807763,27,740.8112793,3.9,188.21,740.9112793,27.1,9.31,1.5,-3.6,0,196.4,-2.1,7.7,1,195.7,-54.1,740.8112793,P-GPS,
871900,5:34:45 PM,40.99493118,20.79807312,27,740.8112793,3.99,188.619,740.9112793,27.1,9.31,1.5,-3.7,0,196.1,-2,8.1,1,195.5,-54.1,740.8112793,P-GPS,
872000,5:34:45 PM,40.99493263,20.7980685,27,740.8112793,3.99,189.039,740.9112793,27.1,9.31,1.5,-3.8,0.1,195.9,-1.8,8.1,1,195.3,-54.1,740.8112793,P-GPS,
872100,5:34:46 PM,40.99493405,20.79806382,27,740.8112793,4.09,189.461,740.9112793,27.1,9.31,1.5,-3.8,0,195.6,-1.7,7.2,1,195.1,-54.1,740.8112793,P-GPS,
872200,5:34:46 PM,40.99493548,20.79805904,27,740.8112793,4.09,189.892,740.9112793,27.1,9.31,1.5,-3.9,0,195.5,-1.5,7.2,1,194.9,-54.1,740.8112793,P-GPS,
872300,5:34:46 PM,40.99493686,20.79805424,27,740.8112793,4.14,190.324,740.9112793,27.1,9.31,1.4,-3.9,0.1,195.4,-1.5,7.1,1,194.6,-54.1,740.8112793,P-GPS,
872400,5:34:46 PM,40.99493828,20.79804934,27,740.8112793,4.24,190.763,740.9112793,27.1,9.31,1.4,-4,0.1,195.1,-1.5,7,1,194.4,-54.1,740.8112793,P-GPS,
872500,5:34:46 PM,40.99493965,20.79804443,27,740.8112793,4.24,191.203,740.9112793,27.1,9.31,1.4,-4,0.1,194.8,-1.4,7.4,1,194.2,-54.1,740.8112793,P-GPS,
872600,5:34:46 PM,40.99494111,20.79803939,27,740.8112793,4.24,191.656,740.9112793,27.1,9.31,1.4,-4,0.1,194.6,-1.6,7.7,1,194,-54.1,740.8112793,P-GPS,
872700,5:34:46 PM,40.99494251,20.79803432,27,740.8112793,4.33,192.109,740.9112793,27.1,9.31,1.4,-4.1,0.1,194.3,-1.5,7.8,1,193.7,-54.1,740.8112793,P-GPS,
872800,5:34:46 PM,40.99494389,20.79802926,27,740.8112793,4.33,192.561,740.9112793,27.1,9.31,1.4,-4.1,0.1,194.1,-1.5,7.8,1,193.5,-54.1,740.8112793,P-GPS,
872900,5:34:46 PM,40.99494522,20.79802416,27,740.8112793,4.43,193.013,740.9112793,27.1,9.31,1.4,-4.2,0.1,193.9,-1.5,7.9,1,193.2,-54.1,740.8112793,P-GPS,
873000,5:34:46 PM,40.99494659,20.798019,27,740.8112793,4.52,193.472,740.9112793,27.1,9.31,1.4,-4.3,0.1,193.6,-1.7,7.9,1,192.8,-54.1,740.8112793,P-GPS,
873100,5:34:46 PM,40.99494792,20.79801379,27,740.8112793,4.52,193.935,740.9112793,27.1,9.31,1.4,-4.3,0.1,193.4,-1.6,8.3,1,192.3,-54.1,740.8112793,P-GPS,
873200,5:34:47 PM,40.9949493,20.79800851,27,740.8112793,4.62,194.403,740.9112793,27.1,9.31,1.4,-4.4,0.1,193.1,-1.6,8.4,1,191.8,-54.1,740.8112793,P-GPS,
873300,5:34:47 PM,40.99495063,20.79800317,27,740.8112793,4.62,194.875,740.9112793,27.1,9.31,1.4,-4.4,0,192.6,-1.6,8.5,1,191,-54.1,740.8112793,P-GPS,
873400,5:34:47 PM,40.994952,20.79799775,27,740.8112793,4.71,195.355,740.9112793,27.1,9.31,1.4,-4.5,0.1,192.2,-1.6,8.9,1,190.3,-54.1,740.8112793,P-GPS,
873500,5:34:47 PM,40.99495332,20.79799227,27,740.8112793,4.71,195.837,740.9112793,27.1,9.31,1.4,-4.5,0.1,191.5,-1.6,9.4,1,189.6,-54.1,740.8112793,P-GPS,
873600,5:34:47 PM,40.99495467,20.79798667,27,740.8112793,4.81,196.331,740.9112793,27.1,9.31,1.4,-4.6,0.1,190.8,-1.6,9.7,1,189,-54.1,740.8112793,P-GPS,
873700,5:34:47 PM,40.99495599,20.79798101,27,740.8112793,4.9,196.828,740.9112793,27.1,9.31,1.4,-4.7,0.1,190.1,-1.8,9.6,1,188.3,-54.1,740.8112793,P-GPS,
873800,5:34:47 PM,40.99495734,20.79797521,27,740.8112793,4.97,197.336,740.9112793,27.1,9.31,1.3,-4.8,0.1,189.4,-1.8,9.6,1,187.7,-54.1,740.8112793,P-GPS,
873900,5:34:47 PM,40.99495864,20.79796936,27,740.8112793,4.97,197.848,740.9112793,27.1,9.31,1.3,-4.8,0.1,188.9,-1.8,9.5,1,187.1,-54.1,740.8112793,P-GPS,
874000,5:34:47 PM,40.99495994,20.79796344,26.9,740.7112793,5.07,198.365,740.9112793,27.1,9.31,1.3,-4.9,0.1,188.2,-1.8,9.4,1,186.5,-54.1,740.7112793,P-GPS,
874100,5:34:47 PM,40.9949612,20.79795747,26.9,740.7112793,5.17,198.884,740.9112793,27.1,9.31,1.3,-5,0.1,187.6,-2,9.4,1,185.9,-54.1,740.7112793,P-GPS,
874200,5:34:48 PM,40.99496247,20.79795136,26.9,740.7112793,5.17,199.414,740.9112793,27.1,9.31,1.3,-5,0.1,186.8,-2.1,9.3,1,185.4,-54.1,740.7112793,P-GPS,
874300,5:34:48 PM,40.99496369,20.79794521,26.9,740.7112793,5.24,199.947,740.9112793,27.1,9.31,1.2,-5.1,0.1,186.3,-2.1,9.3,1,184.8,-54.1,740.7112793,P-GPS,
874400,5:34:48 PM,40.99496489,20.797939,26.9,740.7112793,5.24,200.484,740.9112793,27.1,9.31,1.2,-5.1,0.1,185.7,-2.1,9.1,1,184.2,-54.1,740.7112793,P-GPS,
874500,5:34:48 PM,40.99496605,20.79793274,26.9,740.7112793,5.34,201.022,740.9112793,27.1,9.31,1.2,-5.2,0.1,185.1,-2.1,9.1,1,183.7,-54.1,740.7112793,P-GPS,
874600,5:34:48 PM,40.99496722,20.79792637,26.9,740.7112793,5.34,201.57,740.9112793,27.1,9.31,1.2,-5.2,0.1,184.5,-2.1,8.9,1,183.1,-54.1,740.7112793,P-GPS,
874700,5:34:48 PM,40.99496834,20.79791995,26.9,740.7112793,5.41,202.12,740.9112793,27.1,9.31,1.1,-5.3,0.1,183.9,-2.2,8.9,1,182.6,-54.1,740.7112793,P-GPS,
874800,5:34:48 PM,40.99496944,20.79791347,26.9,740.7112793,5.41,202.674,740.9112793,27.1,9.31,1.1,-5.3,0.1,183.4,-2.2,8.8,1,182.1,-54.1,740.7112793,P-GPS,
874900,5:34:48 PM,40.99497048,20.79790695,26.9,740.7112793,5.51,203.229,740.9112793,27.1,9.31,1.1,-5.4,0.1,182.8,-2.2,8.7,1,181.6,-54.1,740.7112793,P-GPS,
875000,5:34:48 PM,40.99497156,20.79790036,26.9,740.7112793,5.49,203.79,740.9112793,27.1,9.31,1,-5.4,0,182.3,-2.3,8.7,1,181,-54.1,740.7112793,P-GPS,
875100,5:34:49 PM,40.99497259,20.79789374,26.9,740.7112793,5.59,204.353,740.9112793,27.1,9.31,1,-5.5,0,181.7,-2.3,8.6,1,180.4,-54.1,740.7112793,P-GPS,
875200,5:34:49 PM,40.99497361,20.79788693,26.9,740.7112793,5.59,204.931,740.9112793,27.1,9.31,1,-5.5,0.1,181.2,-2.5,8.5,1,179.6,-54.1,740.7112793,P-GPS,
875300,5:34:49 PM,40.99497456,20.7978801,26.9,740.7112793,5.67,205.507,740.9112793,27.1,9.31,0.9,-5.6,0.1,180.6,-2.5,8.5,1,178.7,-54.1,740.7112793,P-GPS,
875400,5:34:49 PM,40.99497546,20.79787333,26.9,740.7112793,5.67,206.077,740.9112793,27.1,9.31,0.9,-5.6,0.1,179.8,-2.3,8.2,1,177.8,-54.1,740.7112793,P-GPS,
875500,5:34:49 PM,40.9949763,20.79786655,26.9,740.7112793,5.66,206.646,740.9112793,27.1,9.31,0.8,-5.6,0.1,179,-2.5,8,1,176.7,-54.1,740.7112793,P-GPS,
875600,5:34:49 PM,40.99497709,20.79785975,26.9,740.7112793,5.76,207.214,740.9112793,27.1,9.31,0.8,-5.7,0,178,-2.5,7.9,1,175.6,-54.1,740.7112793,P-GPS,
875700,5:34:49 PM,40.99497782,20.79785292,26.9,740.7112793,5.74,207.783,740.9112793,27.1,9.31,0.7,-5.7,0,177.2,-2.5,7.8,1,174.4,-54.1,740.7112793,P-GPS,
875800,5:34:49 PM,40.9949785,20.79784603,26.9,740.7112793,5.74,208.355,740.9112793,27.1,9.31,0.7,-5.7,0.1,176.1,-2.4,6.6,1,173.4,-54.1,740.7112793,P-GPS,
875900,5:34:49 PM,40.99497912,20.79783913,26.9,740.7112793,5.73,208.925,740.9112793,27.1,9.31,0.6,-5.7,0.1,174.9,-2.5,5.7,1,172.4,-54.1,740.7112793,P-GPS,
876000,5:34:49 PM,40.99497971,20.79783225,26.9,740.7112793,5.73,209.493,740.9112793,27.1,9.31,0.6,-5.7,0,173.9,-2.8,5.1,1,171.5,-54.1,740.7112793,P-GPS,
876100,5:34:50 PM,40.99498025,20.79782541,26.9,740.7112793,5.72,210.056,740.9112793,27.1,9.31,0.5,-5.7,0,172.9,-3.2,5,1,170.6,-54.1,740.7112793,P-GPS,
876200,5:34:50 PM,40.99498079,20.79781863,26.9,740.7112793,5.72,210.614,740.9112793,27.1,9.31,0.5,-5.6,0,171.8,-4.2,4.9,1,169.9,-54.1,740.7112793,P-GPS,
876300,5:34:50 PM,40.99498125,20.79781189,26.9,740.7112793,5.61,211.166,740.9112793,27.1,9.31,0.4,-5.6,0,171,-4.6,4.8,1,169.5,-54.1,740.7112793,P-GPS,
876400,5:34:50 PM,40.99498165,20.79780522,26.9,740.7112793,5.51,211.711,740.9112793,27.1,9.31,0.3,-5.5,0,170.1,-4.9,4.4,1,169.2,-54.1,740.7112793,P-GPS,
876500,5:34:50 PM,40.99498194,20.79779861,26.9,740.7112793,5.5,212.248,740.9112793,27.1,9.31,0.2,-5.5,0,169.4,-5.1,4.4,1,168.9,-54.1,740.7112793,P-GPS,
876600,5:34:50 PM,40.99498225,20.79779207,26.9,740.7112793,5.4,212.779,740.9112793,27.1,9.31,0.1,-5.4,0.1,169,-5.4,4.1,1,168.7,-54.1,740.7112793,P-GPS,
876700,5:34:50 PM,40.99498244,20.79778558,26.9,740.7112793,5.4,213.302,740.9112793,27.1,9.31,0,-5.4,0,168.8,-6.3,3.8,1,168.5,-54.1,740.7112793,P-GPS,
876800,5:34:50 PM,40.9949826,20.79777922,26.9,740.7112793,5.3,213.814,740.9112793,27.1,9.31,0,-5.3,0,168.6,-6.9,3.1,1,168.3,-54.1,740.7112793,P-GPS,
876900,5:34:50 PM,40.99498261,20.79777293,26.9,740.7112793,5.2,214.315,740.9112793,27.1,9.31,-0.1,-5.2,0,168.2,-7.5,3.1,1,168.1,-54.1,740.7112793,P-GPS,
877000,5:34:50 PM,40.99498261,20.79776675,26.9,740.7112793,5.2,214.807,740.9112793,27.1,9.31,-0.2,-5.2,0,168.1,-8.7,2.9,1,167.9,-54.1,740.7112793,P-GPS,
877100,5:34:50 PM,40.99498245,20.79776066,26.9,740.7112793,5.12,215.287,740.9112793,27.1,9.31,-0.4,-5.1,0,167.8,-9.6,2.6,1,167.7,-54.1,740.7112793,P-GPS,
877200,5:34:51 PM,40.99498216,20.79775468,27,740.8112793,5.02,215.753,740.9112793,27.1,9.31,-0.5,-5,0,167.7,-10.7,1.7,1,167.5,-54.1,740.8112793,P-GPS,
877300,5:34:51 PM,40.99498168,20.79774881,27,740.8112793,4.95,216.204,740.9112793,27.1,9.31,-0.7,-4.9,0,167.5,-11.7,0.3,1,166.8,-54.1,740.8112793,P-GPS,
877400,5:34:51 PM,40.99498107,20.79774307,27,740.8112793,4.77,216.641,740.9112793,27.1,9.31,-0.8,-4.7,0,167.4,-12.3,-0.9,1,165.7,-54.1,740.8112793,P-GPS,
877500,5:34:51 PM,40.99498027,20.7977375,27,740.8112793,4.71,217.057,740.9112793,27.1,9.31,-1,-4.6,0,167,-12.5,-2,1,164.6,-54.1,740.8112793,P-GPS,
877600,5:34:51 PM,40.9949793,20.79773214,27,740.8112793,4.56,217.451,740.9112793,27.1,9.31,-1.2,-4.4,0.1,166.3,-12.9,-2.9,1,163.7,-54.1,740.8112793,P-GPS,
877700,5:34:51 PM,40.99497816,20.79772702,26.9,740.7112793,4.43,217.822,740.9112793,27.1,9.31,-1.4,-4.2,0.1,165.4,-14.1,-3.4,1,162.8,-54.1,740.7112793,P-GPS,
877800,5:34:51 PM,40.9949769,20.79772218,26.9,740.7112793,4.27,218.164,740.9112793,27.1,9.31,-1.5,-4,0.1,164.3,-14.2,-3.6,1,161.9,-54.1,740.7112793,P-GPS,
877900,5:34:51 PM,40.99497545,20.79771761,26.9,740.7112793,4.16,218.48,740.9112793,27.1,9.31,-1.7,-3.8,0.1,163.2,-13.7,-3.7,1,161.2,-54.1,740.7112793,P-GPS,
878000,5:34:51 PM,40.99497391,20.79771331,26.9,740.7112793,3.98,218.771,740.9112793,27.1,9.31,-1.9,-3.5,0,162.6,-14.2,-3.4,1,160.4,-54.1,740.7112793,P-GPS,
878100,5:34:51 PM,40.9949722,20.79770926,26.9,740.7112793,3.86,219.037,740.9112793,27.1,9.31,-2,-3.3,0.1,162,-14,-3.3,1,159.8,-54.1,740.7112793,P-GPS,
878200,5:34:52 PM,40.99497041,20.79770548,26.9,740.7112793,3.8,219.279,740.9112793,27.1,9.31,-2.2,-3.1,0.1,161.3,-14.5,-2.8,1,159.4,-54.1,740.7112793,P-GPS,
878300,5:34:52 PM,40.99496845,20.79770194,26.9,740.7112793,3.7,219.497,740.9112793,27.1,9.31,-2.3,-2.9,0.1,160.5,-14.9,-2.3,1,159,-54.1,740.7112793,P-GPS,
878400,5:34:52 PM,40.99496642,20.7976986,26.9,740.7112793,3.68,219.696,740.9112793,27.1,9.31,-2.5,-2.7,0.1,159.8,-15.3,-1.8,1,158.7,-54.1,740.7112793,P-GPS,
878500,5:34:52 PM,40.9949642,20.79769548,26.9,740.7112793,3.61,219.872,740.9112793,27.1,9.31,-2.6,-2.5,0.1,159.2,-15.1,-1.8,1,158.3,-54.1,740.7112793,P-GPS,
878600,5:34:52 PM,40.99496188,20.79769256,26.9,740.7112793,3.62,220.029,740.9112793,27.1,9.31,-2.8,-2.3,0.1,158.8,-15.1,-2.1,1,157.9,-54.1,740.7112793,P-GPS,
878700,5:34:52 PM,40.99495937,20.79768987,26.9,740.7112793,3.58,220.162,740.9112793,27.1,9.31,-2.9,-2.1,0.1,158.5,-14.6,-1.9,1,157.5,-54.1,740.7112793,P-GPS,
878800,5:34:52 PM,40.99495679,20.79768734,26.9,740.7112793,3.69,220.28,740.9112793,27.1,9.31,-3.1,-2,0,158.2,-14.8,-1.5,1,157.1,-54.1,740.7112793,P-GPS,
878900,5:34:52 PM,40.99495403,20.79768503,26.9,740.7112793,3.67,220.375,740.9112793,27.1,9.31,-3.2,-1.8,0,157.8,-15.1,-1.2,1,156.6,-54.1,740.7112793,P-GPS,
879000,5:34:52 PM,40.99495115,20.79768287,26.9,740.7112793,3.76,220.455,740.9112793,27.1,9.31,-3.4,-1.6,0,157.3,-15.4,-1,1,156.1,-54.1,740.7112793,P-GPS,
879100,5:34:53 PM,40.99494808,20.79768093,26.9,740.7112793,3.81,220.512,740.9112793,27.1,9.31,-3.5,-1.5,0,157.2,-15.5,-0.9,1,155.6,-54.1,740.7112793,P-GPS,
879200,5:34:53 PM,40.99494492,20.79767911,26.9,740.7112793,3.92,220.556,740.9112793,27.1,9.31,-3.7,-1.3,0,156.7,-15.3,-0.7,1,155.1,-54.1,740.7112793,P-GPS,
879300,5:34:53 PM,40.99494157,20.79767751,26.9,740.7112793,3.98,220.579,740.9112793,27.1,9.31,-3.8,-1.2,0,156.2,-15.4,-0.7,1,154.6,-54.1,740.7112793,P-GPS,
879400,5:34:53 PM,40.99493818,20.79767603,26.9,740.7112793,4.12,220.59,740.9112793,27.1,9.31,-4,-1,0,155.7,-15.2,-0.7,1,154.1,-54.1,740.7112793,P-GPS,
879500,5:34:53 PM,40.99493463,20.79767477,26.9,740.7112793,4.2,220.579,740.9112793,27.1,9.31,-4.1,-0.9,0,155.2,-15.3,-0.7,1,153.5,-54.1,740.7112793,P-GPS,
879600,5:34:53 PM,40.99493104,20.79767364,26.9,740.7112793,4.28,220.558,740.9112793,27.1,9.31,-4.2,-0.8,0,154.6,-15.4,-0.6,1,152.7,-54.1,740.7112793,P-GPS,
879700,5:34:53 PM,40.99492728,20.79767271,26.9,740.7112793,4.44,220.515,740.9112793,27.1,9.31,-4.4,-0.6,0,154,-15.5,-0.5,1,152,-54.1,740.7112793,P-GPS,
879800,5:34:53 PM,40.9949235,20.79767189,26.9,740.7112793,4.53,220.465,740.9112793,27.1,9.31,-4.5,-0.5,0,153.3,-15.5,-0.2,1,151.4,-54.1,740.7112793,P-GPS,
879900,5:34:53 PM,40.99491954,20.79767126,26.9,740.7112793,4.62,220.393,740.9112793,27.1,9.31,-4.6,-0.4,0.1,152.4,-15.4,0.3,1,150.8,-54.1,740.7112793,P-GPS,
880000,5:34:53 PM,40.99491551,20.79767078,26.9,740.7112793,4.7,220.31,740.9112793,27.1,9.31,-4.7,-0.2,0.1,151.8,-14.8,0.8,1,150.3,-54.1,740.7112793,P-GPS,
880100,5:34:54 PM,40.99491131,20.79767047,26.8,740.6112793,4.8,220.207,740.9112793,27.1,9.31,-4.8,-0.1,0,151.2,-12.8,1.1,1,149.8,-54.1,740.6112793,P-GPS,
880200,5:34:54 PM,40.99490708,20.79767019,26.8,740.6112793,4.9,220.102,740.9112793,27.1,9.31,-4.9,-0.1,0,150.7,-9.8,1.2,1,149.3,-54.1,740.6112793,P-GPS,
880300,5:34:54 PM,40.99490274,20.79767004,26.8,740.6112793,4.9,219.985,740.9112793,27.1,9.31,-4.9,0,0,150.1,-7.2,1.5,1,148.8,-54.1,740.6112793,P-GPS,
880400,5:34:54 PM,40.99489834,20.79766985,26.8,740.6112793,4.9,219.87,740.9112793,27.1,9.31,-4.9,0,0,149.6,-5,3.1,1,148.3,-54.1,740.6112793,P-GPS,
880500,5:34:54 PM,40.99489391,20.79766974,26.8,740.6112793,4.9,219.749,740.9112793,27.1,9.31,-4.9,0,0,149.1,-3.2,5.1,1,147.8,-54.1,740.6112793,P-GPS,
880600,5:34:54 PM,40.99488961,20.79766943,26.8,740.6112793,4.9,219.648,740.9112793,27.1,9.31,-4.9,-0.1,0,148.6,-1.9,7.7,1,147.3,-54.1,740.6112793,P-GPS,
880700,5:34:54 PM,40.99488529,20.79766908,26.8,740.6112793,4.9,219.552,740.9112793,27.1,9.31,-4.9,-0.2,0,148.1,-0.8,10.8,1,146.8,-54.1,740.6112793,P-GPS,
880800,5:34:54 PM,40.99488107,20.79766842,26.8,740.6112793,4.92,219.484,740.9112793,27.1,9.31,-4.9,-0.4,0,147.6,0,12.1,1,146.3,-54.1,740.6112793,P-GPS,
880900,5:34:54 PM,40.99487679,20.79766765,26.7,740.5112793,4.84,219.425,740.9112793,27.1,9.31,-4.8,-0.6,0,147.1,0.7,13.2,1,145.7,-54.1,740.5112793,P-GPS,
881000,5:34:54 PM,40.99487257,20.79766646,26.7,740.5112793,4.87,219.402,740.9112793,27.1,9.31,-4.8,-0.8,0,146.6,1,13.8,1,145.2,-54.1,740.5112793,P-GPS,
881100,5:34:54 PM,40.9948683,20.79766514,26.8,740.6112793,4.9,219.39,740.9112793,27.1,9.31,-4.8,-1,0,146,1.3,14.3,1,144.6,-54.1,740.6112793,P-GPS,
881200,5:34:55 PM,40.99486403,20.79766336,26.8,740.6112793,5.04,219.416,740.9112793,27.1,9.31,-4.9,-1.2,0,145.7,1.5,14.7,1,144,-54.1,740.6112793,P-GPS,
881300,5:34:55 PM,40.99485972,20.79766144,26.8,740.6112793,5.12,219.454,740.9112793,27.1,9.31,-4.9,-1.5,0,145.1,1.7,14.9,1,143.4,-54.1,740.6112793,P-GPS,
881400,5:34:55 PM,40.99485539,20.79765914,26.8,740.6112793,5.19,219.523,740.9112793,27.1,9.31,-4.9,-1.7,0,144.5,1.7,15,1,142.8,-54.1,740.6112793,P-GPS,
881500,5:34:55 PM,40.99485102,20.79765672,26.8,740.6112793,5.26,219.602,740.9112793,27.1,9.31,-4.9,-1.9,0,143.9,1.8,15,1,142.2,-54.1,740.6112793,P-GPS,
881600,5:34:55 PM,40.99484666,20.79765389,26.8,740.6112793,5.33,219.716,740.9112793,27.1,9.31,-4.9,-2.1,0,143.4,1.8,15.1,1,141.6,-54.1,740.6112793,P-GPS,
881700,5:34:55 PM,40.9948423,20.79765096,26.8,740.6112793,5.41,219.839,740.9112793,27.1,9.31,-4.9,-2.3,0,142.8,1.9,15.2,1,141,-54.1,740.6112793,P-GPS,
881800,5:34:55 PM,40.99483792,20.79764768,26.8,740.6112793,5.5,219.992,740.9112793,27.1,9.31,-4.9,-2.5,0,142.1,2,15.1,1,140.3,-54.1,740.6112793,P-GPS,
881900,5:34:55 PM,40.99483354,20.79764431,26.8,740.6112793,5.59,220.153,740.9112793,27.1,9.31,-4.9,-2.7,0,141.4,1.9,15.3,1,139.8,-54.1,740.6112793,P-GPS,
882000,5:34:55 PM,40.99482915,20.79764067,26.8,740.6112793,5.64,220.338,740.9112793,27.1,9.31,-4.9,-2.8,0,140.6,2,15.3,1,139.3,-54.1,740.6112793,P-GPS,
882100,5:34:55 PM,40.99482474,20.79763692,26.8,740.6112793,5.75,220.532,740.9112793,27.1,9.31,-4.9,-3,0,140.2,1.9,15.3,1,138.8,-54.1,740.6112793,P-GPS,
882200,5:34:56 PM,40.99482036,20.79763296,26.8,740.6112793,5.85,220.746,740.9112793,27.1,9.31,-4.9,-3.2,0,139.6,1.9,15.3,1,138.3,-54.1,740.6112793,P-GPS,
882300,5:34:56 PM,40.99481597,20.79762887,26.8,740.6112793,5.96,220.97,740.9112793,27.1,9.31,-4.9,-3.4,0,139,1.8,15.4,1,137.8,-54.1,740.6112793,P-GPS,
882400,5:34:56 PM,40.9948115,20.7976246,26.8,740.6112793,6.1,221.21,740.9112793,27.1,9.31,-5,-3.5,0,138.4,1.7,15.5,1,137.4,-54.1,740.6112793,P-GPS,
882500,5:34:56 PM,40.99480701,20.79762019,26.8,740.6112793,6.22,221.462,740.9112793,27.1,9.31,-5,-3.7,0,137.9,1.5,15.6,1,137,-54.1,740.6112793,P-GPS,
882600,5:34:56 PM,40.99480245,20.79761557,26.8,740.6112793,6.28,221.731,740.9112793,27.1,9.31,-5,-3.8,0,137.5,1.5,15.8,1,136.6,-54.1,740.6112793,P-GPS,
882700,5:34:56 PM,40.99479786,20.79761081,26.8,740.6112793,6.42,222.012,740.9112793,27.1,9.31,-5.1,-3.9,0,137.1,1.4,15.7,1,136.3,-54.1,740.6112793,P-GPS,
882800,5:34:56 PM,40.9947932,20.79760586,26.8,740.6112793,6.54,222.309,740.9112793,27.1,9.31,-5.1,-4.1,0,136.7,1.4,15.7,1,136,-54.1,740.6112793,P-GPS,
882900,5:34:56 PM,40.99478851,20.79760079,26.8,740.6112793,6.68,222.617,740.9112793,27.1,9.31,-5.2,-4.2,0,136.4,1.4,15.3,1,135.7,-54.1,740.6112793,P-GPS,
883000,5:34:56 PM,40.99478361,20.79759547,26.8,740.6112793,6.75,222.941,740.9112793,27.1,9.31,-5.2,-4.3,0,136.1,1.4,14.7,1,135.3,-54.1,740.6112793,P-GPS,
883100,5:34:57 PM,40.99477872,20.79759007,26.8,740.6112793,6.89,223.275,740.9112793,27.1,9.31,-5.3,-4.4,0,135.8,1.3,14.4,1,135,-54.1,740.6112793,P-GPS,
883200,5:34:57 PM,40.99477381,20.79758463,26.8,740.6112793,6.95,223.613,740.9112793,27.1,9.31,-5.3,-4.5,0,135.5,1.1,13.9,1,134.7,-54.1,740.6112793,P-GPS,
883300,5:34:57 PM,40.99476891,20.79757912,26.8,740.6112793,7.09,223.959,740.9112793,27.1,9.31,-5.4,-4.6,0,135.1,1.1,13.1,1,134.3,-54.1,740.6112793,P-GPS,
883400,5:34:57 PM,40.99476396,20.79757345,26.8,740.6112793,7.16,224.317,740.9112793,27.1,9.31,-5.4,-4.7,0,134.7,1,12.5,1,134,-54.1,740.6112793,P-GPS,
883500,5:34:57 PM,40.994759,20.79756772,26.8,740.6112793,7.16,224.684,740.9112793,27.1,9.31,-5.4,-4.7,0.1,134.4,0.9,11.7,1,133.6,-54.1,740.6112793,P-GPS,
883600,5:34:57 PM,40.99475402,20.79756194,26.8,740.6112793,7.22,225.055,740.9112793,27.1,9.31,-5.4,-4.8,0.1,134.1,0.8,11.2,1,133.2,-54.1,740.6112793,P-GPS,
883700,5:34:57 PM,40.99474905,20.79755614,26.8,740.6112793,7.22,225.43,740.9112793,27.1,9.31,-5.4,-4.8,0.1,133.8,0.7,10.7,1,132.8,-54.1,740.6112793,P-GPS,
883800,5:34:57 PM,40.99474409,20.79755023,26.8,740.6112793,7.29,225.817,740.9112793,27.1,9.31,-5.4,-4.9,0.1,133.4,0.6,10,1,132.4,-54.1,740.6112793,P-GPS,
883900,5:34:57 PM,40.99473914,20.79754431,26.8,740.6112793,7.29,226.206,740.9112793,27.1,9.31,-5.4,-4.9,0,133,0.5,9.3,1,132,-54.1,740.6112793,P-GPS,
884000,5:34:57 PM,40.99473423,20.79753834,26.8,740.6112793,7.29,226.601,740.9112793,27.1,9.31,-5.4,-4.9,0.1,132.5,0.2,8.8,1,131.6,-54.1,740.6112793,P-GPS,
884100,5:34:58 PM,40.99472933,20.7975324,26.8,740.6112793,7.29,226.997,740.9112793,27.1,9.31,-5.4,-4.9,0.1,132.1,0.2,8.6,1,131.2,-54.1,740.6112793,P-GPS,
884200,5:34:58 PM,40.99472447,20.79752638,26.8,740.6112793,7.29,227.401,740.9112793,27.1,9.31,-5.4,-4.9,0,131.8,0.3,8.2,1,130.8,-54.1,740.6112793,P-GPS,
884300,5:34:58 PM,40.99471961,20.7975204,26.8,740.6112793,7.29,227.804,740.9112793,27.1,9.31,-5.4,-4.9,0,131.4,0,8,1,130.4,-54.1,740.6112793,P-GPS,
884400,5:34:58 PM,40.99471477,20.79751444,26.8,740.6112793,7.22,228.207,740.9112793,27.1,9.31,-5.3,-4.9,0,130.9,0,7.8,1,130,-54.1,740.6112793,P-GPS,
884500,5:34:58 PM,40.99470994,20.79750854,26.8,740.6112793,7.15,228.607,740.9112793,27.1,9.31,-5.3,-4.8,0,130.5,-0.1,7.4,1,129.5,-54.1,740.6112793,P-GPS,
884600,5:34:58 PM,40.99470516,20.79750264,26.8,740.6112793,7.15,229.009,740.9112793,27.1,9.31,-5.3,-4.8,0,130.1,-0.1,7.4,1,129,-54.1,740.6112793,P-GPS,
884700,5:34:58 PM,40.99470037,20.79749679,26.8,740.6112793,7.15,229.408,740.9112793,27.1,9.31,-5.3,-4.8,0,129.7,-0.1,6.8,1,128.4,-54.1,740.6112793,P-GPS,
884800,5:34:58 PM,40.99469562,20.7974909,26.8,740.6112793,7.15,229.814,740.9112793,27.1,9.31,-5.3,-4.8,0,129.1,-0.3,6.2,1,127.8,-54.1,740.6112793,P-GPS,
884900,5:34:58 PM,40.99469087,20.79748508,26.8,740.6112793,7.15,230.215,740.9112793,27.1,9.31,-5.2,-4.7,0,128.5,-0.6,5.6,1,127.1,-54.1,740.6112793,P-GPS,
885000,5:34:58 PM,40.99468617,20.79747927,26.8,740.6112793,7.01,230.617,740.9112793,27.1,9.31,-5.2,-4.7,0,127.9,-0.5,5.4,1,126.4,-54.1,740.6112793,P-GPS,
885100,5:34:58 PM,40.99468149,20.79747356,26.8,740.6112793,6.94,231.013,740.9112793,27.1,9.31,-5.2,-4.6,0,127.3,-0.6,5,1,125,-54.1,740.6112793,P-GPS,
885200,5:34:59 PM,40.99467689,20.79746788,26.8,740.6112793,6.87,231.41,740.9112793,27.1,9.31,-5.1,-4.6,0,126.5,-0.8,3.8,1,122.5,-54.1,740.6112793,P-GPS,
885300,5:34:59 PM,40.99467231,20.79746233,26.8,740.6112793,6.73,231.797,740.9112793,27.1,9.31,-5,-4.5,0,125.3,-1.2,1.4,1,120.2,-54.1,740.6112793,P-GPS,
885400,5:34:59 PM,40.99466777,20.79745682,26.8,740.6112793,6.66,232.183,740.9112793,27.1,9.31,-5,-4.4,0,123.2,-1.5,0.1,1,117.4,-54.1,740.6112793,P-GPS,
885500,5:34:59 PM,40.9946633,20.79745148,26.8,740.6112793,6.52,232.557,740.9112793,27.1,9.31,-4.9,-4.3,0,120.8,-1.8,-0.1,1,115,-54.1,740.6112793,P-GPS,
885600,5:34:59 PM,40.99465887,20.79744615,26.8,740.6112793,6.31,232.933,740.9112793,27.1,9.31,-4.8,-4.1,0,118.1,-2,-0.5,1,112.8,-54.1,740.6112793,P-GPS,
885700,5:34:59 PM,40.99465453,20.79744102,26.8,740.6112793,6.17,233.295,740.9112793,27.1,9.31,-4.7,-4,0,115.6,-2,-0.4,1,111,-54.1,740.6112793,P-GPS,
885800,5:34:59 PM,40.99465037,20.79743608,26.8,740.6112793,6.03,233.644,740.9112793,27.1,9.31,-4.6,-3.9,0,113.4,-2.2,-0.3,1,110.1,-54.1,740.6112793,P-GPS,
885900,5:34:59 PM,40.99464629,20.79743132,26.8,740.6112793,5.89,233.981,740.9112793,27.1,9.31,-4.5,-3.8,0,111.7,-2.5,-0.4,1,109.5,-54.1,740.6112793,P-GPS,
886000,5:34:59 PM,40.99464233,20.79742667,26.8,740.6112793,5.75,234.311,740.9112793,27.1,9.31,-4.4,-3.7,0,110.6,-2.8,-0.2,1,109,-54.1,740.6112793,P-GPS,
886100,5:34:59 PM,40.9946384,20.7974222,26.9,740.7112793,5.61,234.628,740.9112793,27.1,9.31,-4.3,-3.6,0,109.8,-2.9,0.3,1,108.6,-54.1,740.7112793,P-GPS,
886200,5:35:00 PM,40.9946346,20.79741782,26.9,740.7112793,5.54,234.94,740.9112793,27.1,9.31,-4.3,-3.5,0,109.1,-2.9,1.9,1,108.2,-54.1,740.7112793,P-GPS,
886300,5:35:00 PM,40.99463079,20.79741361,26.9,740.7112793,5.42,235.239,740.9112793,27.1,9.31,-4.3,-3.3,0,108.6,-2.8,3.4,1,107.5,-54.1,740.7112793,P-GPS,
886400,5:35:00 PM,40.99462707,20.79740947,26.9,740.7112793,5.42,235.534,740.9112793,27.1,9.31,-4.3,-3.3,0,108,-2.7,5.8,1,106.6,-54.1,740.7112793,P-GPS,
886500,5:35:00 PM,40.99462328,20.79740548,26.9,740.7112793,5.36,235.816,740.9112793,27.1,9.31,-4.3,-3.2,0,107.2,-2.7,6.4,1,105.7,-54.1,740.7112793,P-GPS,
886600,5:35:00 PM,40.99461948,20.79740151,26.9,740.7112793,5.3,236.098,740.9112793,27.1,9.31,-4.3,-3.1,0,106.3,-2.7,7,1,103.6,-54.1,740.7112793,P-GPS,
886700,5:35:00 PM,40.99461561,20.79739769,26.9,740.7112793,5.33,236.367,740.9112793,27.1,9.31,-4.4,-3,0,105.1,-2.6,7.2,1,101.2,-54.1,740.7112793,P-GPS,
886800,5:35:00 PM,40.99461172,20.7973939,26.9,740.7112793,5.27,236.635,740.9112793,27.1,9.31,-4.4,-2.9,0,103.4,-2.7,6.2,1,99.1,-54.1,740.7112793,P-GPS,
886900,5:35:00 PM,40.99460776,20.79739027,26.9,740.7112793,5.3,236.888,740.9112793,27.1,9.31,-4.5,-2.8,0,101.2,-2.8,5.2,1,97.3,-54.1,740.7112793,P-GPS,
887000,5:35:00 PM,40.99460379,20.79738666,26.9,740.7112793,5.3,237.142,740.9112793,27.1,9.31,-4.5,-2.8,0,99.3,-3.1,4.2,1,95.5,-54.1,740.7112793,P-GPS,
887100,5:35:01 PM,40.9945998,20.79738322,26.9,740.7112793,5.25,237.381,740.9112793,27.1,9.31,-4.5,-2.7,0,97.4,-3.6,3.9,1,93.7,-54.1,740.7112793,P-GPS,
887200,5:35:01 PM,40.9945958,20.79737978,26.9,740.7112793,5.15,237.622,740.9112793,27.1,9.31,-4.5,-2.5,0,95.7,-4.6,4,1,92.2,-54.1,740.7112793,P-GPS,
887300,5:35:01 PM,40.9945918,20.79737657,26.9,740.7112793,5.1,237.845,740.9112793,27.1,9.31,-4.5,-2.4,0,93.9,-5.1,4.1,1,91.6,-54.1,740.7112793,P-GPS,
887400,5:35:01 PM,40.9945878,20.7973734,26.9,740.7112793,5.05,238.064,740.9112793,27.1,9.31,-4.5,-2.3,0.1,92.5,-5.2,4.4,1,91.2,-54.1,740.7112793,P-GPS,
887500,5:35:01 PM,40.99458379,20.79737047,26.9,740.7112793,5.01,238.265,740.9112793,27.1,9.31,-4.5,-2.2,0.1,91.6,-4.9,5.5,1,91.1,-54.1,740.7112793,P-GPS,
887600,5:35:01 PM,40.99457977,20.79736765,26.8,740.6112793,4.92,238.457,740.9112793,27.1,9.31,-4.5,-2,0.1,91.2,-4.6,7.4,1,91.1,-54.1,740.6112793,P-GPS,
887700,5:35:01 PM,40.99457571,20.79736506,26.8,740.6112793,4.98,238.63,740.9112793,27.1,9.31,-4.6,-1.9,0.1,90.8,-4.2,9.8,1,91.1,-54.1,740.6112793,P-GPS,
887800,5:35:01 PM,40.99457159,20.79736254,26.8,740.6112793,5.03,238.798,740.9112793,27.1,9.31,-4.7,-1.8,0,90.6,-4.1,10.9,1,91.1,-54.1,740.6112793,P-GPS,
887900,5:35:01 PM,40.99456738,20.79736024,26.8,740.6112793,5.09,238.948,740.9112793,27.1,9.31,-4.8,-1.7,0,90.6,-4.1,11.8,1,91.1,-54.1,740.6112793,P-GPS,
888000,5:35:01 PM,40.99456307,20.79735808,26.8,740.6112793,5.12,239.086,740.9112793,27.1,9.31,-4.9,-1.5,0,90.4,-3.9,12.4,1,91,-54.1,740.6112793,P-GPS,
888100,5:35:02 PM,40.99455864,20.79735612,26.8,740.6112793,5.19,239.206,740.9112793,27.1,9.31,-5,-1.4,0,90.4,-4.1,13,1,90.8,-54.1,740.6112793,P-GPS,
888200,5:35:02 PM,40.99455406,20.79735428,26.8,740.6112793,5.26,239.317,740.9112793,27.1,9.31,-5.1,-1.3,0,90.4,-4.1,12.8,1,90.5,-54.1,740.6112793,P-GPS,
888300,5:35:02 PM,40.99454937,20.79735263,26.8,740.6112793,5.26,239.412,740.9112793,27.1,9.31,-5.3,-1.2,0,90.2,-4.4,11.6,1,90.3,-54.1,740.6112793,P-GPS,
888400,5:35:02 PM,40.99454456,20.79735109,26.8,740.6112793,5.41,239.498,740.9112793,27.1,9.31,-5.3,-1.1,0,90.1,-5,10.4,1,90.1,-54.1,740.6112793,P-GPS,
888500,5:35:02 PM,40.9945397,20.79734974,26.9,740.7112793,5.47,239.569,740.9112793,27.1,9.31,-5.4,-0.9,0,89.9,-5.9,8.8,1,90,-54.1,740.7112793,P-GPS,
888600,5:35:02 PM,40.99453479,20.79734851,26.8,740.6112793,5.46,239.63,740.9112793,27.1,9.31,-5.4,-0.8,0,89.7,-7.1,6.7,1,89.8,-54.1,740.6112793,P-GPS,
888700,5:35:02 PM,40.99452988,20.79734751,26.8,740.6112793,5.43,239.674,740.9112793,27.1,9.31,-5.4,-0.6,0,89.6,-7.5,4.7,1,89.7,-54.1,740.6112793,P-GPS,
888800,5:35:02 PM,40.99452495,20.79734665,26.8,740.6112793,5.42,239.707,740.9112793,27.1,9.31,-5.4,-0.5,0,89.6,-8,3.1,1,89.6,-54.1,740.6112793,P-GPS,
888900,5:35:02 PM,40.99452009,20.79734602,26.8,740.6112793,5.31,239.722,740.9112793,27.1,9.31,-5.3,-0.3,0,89.6,-8.1,1.5,1,89.5,-54.1,740.6112793,P-GPS,
889000,5:35:02 PM,40.99451536,20.79734553,26.8,740.6112793,5.2,239.728,740.9112793,27.1,9.31,-5.2,-0.2,0,89.6,-8,0.5,1,89.4,-54.1,740.6112793,P-GPS,
889100,5:35:02 PM,40.99451073,20.79734528,26.8,740.6112793,5.1,239.716,740.9112793,27.1,9.31,-5.1,0,0,89.6,-7.8,-0.1,1,89.3,-54.1,740.6112793,P-GPS,
889200,5:35:03 PM,40.99450625,20.7973451,26.8,740.6112793,5,239.7,740.9112793,27.1,9.31,-5,0,0,89.5,-7.4,-0.7,1,89.2,-54.1,740.6112793,P-GPS,
889300,5:35:03 PM,40.99450187,20.79734512,26.8,740.6112793,4.8,239.668,740.9112793,27.1,9.31,-4.8,0.1,0,89.4,-7.4,-1.1,1,89.1,-54.1,740.6112793,P-GPS,
889400,5:35:03 PM,40.99449766,20.79734521,26.8,740.6112793,4.71,239.634,740.9112793,27.1,9.31,-4.7,0.3,0,89.3,-7.1,-0.8,1,89,-54.1,740.6112793,P-GPS,
889500,5:35:03 PM,40.99449354,20.79734549,26.8,740.6112793,4.52,239.584,740.9112793,27.1,9.31,-4.5,0.4,0,89.2,-6.6,-1.1,1,89,-54.1,740.6112793,P-GPS,
889600,5:35:03 PM,40.99448957,20.79734584,26.8,740.6112793,4.43,239.531,740.9112793,27.1,9.31,-4.4,0.5,0,89.2,-6.5,-1.3,1,88.9,-54.1,740.6112793,P-GPS,
889700,5:35:03 PM,40.99448569,20.79734638,26.8,740.6112793,4.34,239.462,740.9112793,27.1,9.31,-4.3,0.6,0,89.1,-6.4,-1.8,1,88.8,-54.1,740.6112793,P-GPS,
889800,5:35:03 PM,40.99448192,20.79734693,26.8,740.6112793,4.16,239.395,740.9112793,27.1,9.31,-4.1,0.7,0,88.9,-6.1,-2,1,88.7,-54.1,740.6112793,P-GPS,
889900,5:35:03 PM,40.99447825,20.79734766,26.8,740.6112793,4.08,239.313,740.9112793,27.1,9.31,-4,0.8,0,88.7,-6,-2.3,1,88.5,-54.1,740.6112793,P-GPS,
890000,5:35:03 PM,40.99447469,20.79734836,26.8,740.6112793,3.98,239.236,740.9112793,27.1,9.31,-3.9,0.8,0,88.6,-6.3,-2.3,1,88.3,-54.1,740.6112793,P-GPS,
890100,5:35:03 PM,40.99447123,20.79734925,26.8,740.6112793,3.81,239.143,740.9112793,27.1,9.31,-3.7,0.9,0,88.5,-6,-2,1,88.2,-54.1,740.6112793,P-GPS,
890200,5:35:04 PM,40.99446792,20.7973502,26.8,740.6112793,3.74,239.047,740.9112793,27.1,9.31,-3.6,1,0,88.4,-6.3,-2.4,1,88,-54.1,740.6112793,P-GPS,
890300,5:35:04 PM,40.99446471,20.79735135,26.8,740.6112793,3.67,238.936,740.9112793,27.1,9.31,-3.5,1.1,0,88.1,-6.3,-2.1,1,87.4,-54.1,740.6112793,P-GPS,
890400,5:35:04 PM,40.99446163,20.79735255,26.8,740.6112793,3.61,238.821,740.9112793,27.1,9.31,-3.4,1.2,0,87.9,-6.7,-1.9,1,86.8,-54.1,740.6112793,P-GPS,
890500,5:35:04 PM,40.99445865,20.79735394,26.8,740.6112793,3.45,238.691,740.9112793,27.1,9.31,-3.2,1.3,0,87.7,-7.6,-1.3,1,86.2,-54.1,740.6112793,P-GPS,
890600,5:35:04 PM,40.99445579,20.7973554,26.8,740.6112793,3.4,238.556,740.9112793,27.1,9.31,-3.1,1.4,0,87,-8.2,-1.3,1,85.4,-54.1,740.6112793,P-GPS,
890700,5:35:04 PM,40.99445302,20.79735707,26.8,740.6112793,3.35,238.405,740.9112793,27.1,9.31,-3,1.5,0,86.4,-8.7,-1.2,1,84.6,-54.1,740.6112793,P-GPS,
890800,5:35:04 PM,40.99445031,20.79735885,26.7,740.5112793,3.36,238.244,740.9112793,27.1,9.31,-2.9,1.7,0,85.6,-9.3,-1.2,1,83.9,-54.1,740.5112793,P-GPS,
890900,5:35:04 PM,40.9944477,20.79736086,26.7,740.5112793,3.33,238.066,740.9112793,27.1,9.31,-2.8,1.8,0,84.7,-10.3,-1,1,83.3,-54.1,740.5112793,P-GPS,
891000,5:35:04 PM,40.99444527,20.79736293,26.7,740.5112793,3.3,237.882,740.9112793,27.1,9.31,-2.7,1.9,0,84,-10.9,-0.7,1,82.7,-54.1,740.5112793,P-GPS,
891100,5:35:05 PM,40.99444295,20.79736524,26.7,740.5112793,3.34,237.68,740.9112793,27.1,9.31,-2.6,2.1,0,83.3,-11,-0.6,1,82.4,-54.1,740.5112793,P-GPS,
891200,5:35:05 PM,40.99444071,20.79736761,26.7,740.5112793,3.33,237.474,740.9112793,27.1,9.31,-2.5,2.2,0,82.6,-11,-0.2,1,82.1,-54.1,740.5112793,P-GPS,
891300,5:35:05 PM,40.99443856,20.79737022,26.7,740.5112793,3.39,237.247,740.9112793,27.1,9.31,-2.4,2.4,0,82.2,-11.6,0.3,1,81.9,-54.1,740.5112793,P-GPS,
891400,5:35:05 PM,40.9944365,20.79737294,26.7,740.5112793,3.4,237.012,740.9112793,27.1,9.31,-2.3,2.5,0,81.9,-12.1,0.7,1,81.7,-54.1,740.5112793,P-GPS,
891500,5:35:05 PM,40.99443451,20.79737591,26.8,740.6112793,3.48,236.756,740.9112793,27.1,9.31,-2.2,2.7,0,81.6,-12.3,0.9,1,81.4,-54.1,740.6112793,P-GPS,
891600,5:35:05 PM,40.99443258,20.79737898,26.8,740.6112793,3.5,236.493,740.9112793,27.1,9.31,-2.1,2.8,0,81.4,-12.4,0.8,1,81.2,-54.1,740.6112793,P-GPS,
891700,5:35:05 PM,40.99443071,20.7973823,26.8,740.6112793,3.66,236.209,740.9112793,27.1,9.31,-2.1,3,0,81.1,-12.4,1,1,81,-54.1,740.6112793,P-GPS,
891800,5:35:05 PM,40.99442889,20.79738571,26.8,740.6112793,3.69,235.917,740.9112793,27.1,9.31,-2,3.1,0,80.9,-12.5,1,1,80.8,-54.1,740.6112793,P-GPS,
891900,5:35:05 PM,40.99442713,20.79738937,26.8,740.6112793,3.81,235.605,740.9112793,27.1,9.31,-1.9,3.3,0,80.8,-12.5,1.2,1,80.6,-54.1,740.6112793,P-GPS,
892000,5:35:05 PM,40.99442538,20.79739316,26.8,740.6112793,3.89,235.282,740.9112793,27.1,9.31,-1.9,3.4,0,80.7,-12.2,1.3,1,80.3,-54.1,740.6112793,P-GPS,
892100,5:35:06 PM,40.9944237,20.79739719,26.8,740.6112793,3.94,234.939,740.9112793,27.1,9.31,-1.8,3.5,0,80.5,-11.9,1.8,1,79.8,-54.1,740.6112793,P-GPS,
892200,5:35:06 PM,40.99442204,20.79740137,26.8,740.6112793,4.11,234.585,740.9112793,27.1,9.31,-1.8,3.7,0,80.2,-11.5,2,1,79.3,-54.1,740.6112793,P-GPS,
892300,5:35:06 PM,40.99442045,20.79740575,26.8,740.6112793,4.16,234.213,740.9112793,27.1,9.31,-1.7,3.8,0,79.9,-11.5,2.3,1,78.9,-54.1,740.6112793,P-GPS,
892400,5:35:06 PM,40.99441889,20.79741021,26.8,740.6112793,4.25,233.835,740.9112793,27.1,9.31,-1.7,3.9,0,79.4,-11.1,2.3,1,78.4,-54.1,740.6112793,P-GPS,
892500,5:35:06 PM,40.99441739,20.79741486,26.8,740.6112793,4.31,233.441,740.9112793,27.1,9.31,-1.6,4,0,79,-10.7,2.4,1,78,-54.1,740.6112793,P-GPS,
892600,5:35:06 PM,40.99441589,20.79741962,26.8,740.6112793,4.4,233.038,740.9112793,27.1,9.31,-1.6,4.1,0,78.6,-10.4,2.7,1,77.6,-54.1,740.6112793,P-GPS,
892700,5:35:06 PM,40.99441444,20.79742455,26.8,740.6112793,4.4,232.621,740.9112793,27.1,9.31,-1.6,4.2,0,78.1,-10.3,2.5,1,77.2,-54.1,740.6112793,P-GPS,
892800,5:35:06 PM,40.99441296,20.79742952,26.8,740.6112793,4.59,232.201,740.9112793,27.1,9.31,-1.6,4.3,0,77.6,-9.9,2.5,1,76.8,-54.1,740.6112793,P-GPS,
892900,5:35:06 PM,40.99441154,20.79743465,26.8,740.6112793,4.65,231.768,740.9112793,27.1,9.31,-1.5,4.4,0,77.3,-9.7,2.4,1,76.6,-54.1,740.6112793,P-GPS,
893000,5:35:06 PM,40.99441011,20.79743984,26.8,740.6112793,4.74,231.329,740.9112793,27.1,9.31,-1.5,4.5,0,76.9,-9.5,2.3,1,76.3,-54.1,740.6112793,P-GPS,
893100,5:35:06 PM,40.99440873,20.79744517,26.8,740.6112793,4.74,230.879,740.9112793,27.1,9.31,-1.5,4.5,0,76.5,-9.3,2.1,1,76,-54.1,740.6112793,P-GPS,
893200,5:35:07 PM,40.99440737,20.79745054,26.8,740.6112793,4.84,230.426,740.9112793,27.1,9.31,-1.5,4.6,0,76.3,-9,2.1,1,75.7,-54.1,740.6112793,P-GPS,
893300,5:35:07 PM,40.99440607,20.79745603,26.8,740.6112793,4.9,229.963,740.9112793,27.1,9.31,-1.4,4.7,0,76,-8.5,1.9,1,75.5,-54.1,740.6112793,P-GPS,
893400,5:35:07 PM,40.99440471,20.79746161,26.8,740.6112793,4.9,229.492,740.9112793,27.1,9.31,-1.4,4.7,0,75.9,-7.1,0.8,1,75.2,-54.1,740.6112793,P-GPS,
893500,5:35:07 PM,40.99440341,20.79746728,26.8,740.6112793,4.97,229.014,740.9112793,27.1,9.31,-1.3,4.8,0,75.6,-5.6,0.1,1,75.1,-54.1,740.6112793,P-GPS,
893600,5:35:07 PM,40.99440214,20.79747277,26.8,740.6112793,4.88,228.551,740.9112793,27.1,9.31,-1.3,4.7,0,75.5,-4.4,-0.4,1,75,-54.1,740.6112793,P-GPS,
893700,5:35:07 PM,40.99440096,20.79747829,26.7,740.5112793,4.85,228.086,740.9112793,27.1,9.31,-1.2,4.7,0.1,75.3,-3.2,-0.9,1,74.9,-54.1,740.5112793,P-GPS,
893800,5:35:07 PM,40.99439978,20.79748364,26.7,740.5112793,4.85,227.636,740.9112793,27.1,9.31,-1.2,4.7,0.1,75.2,-2.2,-1.6,1,74.9,-54.1,740.5112793,P-GPS,
893900,5:35:07 PM,40.99439868,20.79748901,26.7,740.5112793,4.73,227.184,740.9112793,27.1,9.31,-1.1,4.6,0.1,75.1,-0.4,-2.5,1,74.9,-54.1,740.5112793,P-GPS,
894000,5:35:07 PM,40.99439764,20.79749411,26.6,740.4112793,4.63,226.754,740.9112793,27.1,9.31,-1.1,4.5,0.1,75.1,0.3,-2.9,1,74.9,-54.1,740.4112793,P-GPS,
894100,5:35:07 PM,40.9943967,20.79749918,26.6,740.4112793,4.51,226.328,740.9112793,27.1,9.31,-1,4.4,0.1,75.1,1.8,-2.9,1,74.9,-54.1,740.4112793,P-GPS,
894200,5:35:08 PM,40.99439582,20.79750396,26.6,740.4112793,4.3,225.925,740.9112793,27.1,9.31,-0.9,4.2,0,74.3,8.9,-6.4,1,74.9,-54.1,740.4112793,P-GPS,
894300,5:35:08 PM,40.99439502,20.79750859,26.6,740.4112793,3.98,225.536,740.9112793,27.1,9.31,-0.8,3.9,0,73.8,13.1,-8.2,1,74.9,-54.1,740.4112793,P-GPS,
894400,5:35:08 PM,40.9943943,20.79751272,26.6,740.4112793,3.57,225.188,740.9112793,27.1,9.31,-0.7,3.5,0,74.2,14.3,-7.3,1,74.9,-54.1,740.4112793,P-GPS,
894500,5:35:08 PM,40.99439368,20.79751655,26.6,740.4112793,3.26,224.866,740.9112793,27.1,9.31,-0.6,3.2,0,74.4,14.5,-7,1,74.9,-54.1,740.4112793,P-GPS,
894600,5:35:08 PM,40.99439307,20.79751977,26.7,740.5112793,2.86,224.595,740.9112793,27.1,9.31,-0.6,2.8,0,74.8,14,-7.1,1,74.9,-54.1,740.5112793,P-GPS,
894700,5:35:08 PM,40.99439255,20.79752271,26.7,740.5112793,2.55,224.348,740.9112793,27.1,9.31,-0.5,2.5,-0.1,74.7,13.4,-7.6,1,74.9,-54.1,740.5112793,P-GPS,
894800,5:35:08 PM,40.99439201,20.7975251,26.7,740.5112793,2.24,224.146,740.9112793,27.1,9.31,-0.4,2.2,0,74.7,12.9,-7.8,1,74.9,-54.1,740.5112793,P-GPS,
894900,5:35:08 PM,40.99439159,20.79752726,26.7,740.5112793,1.92,223.965,740.9112793,27.1,9.31,-0.3,1.9,0,74.5,12.7,-7.8,1,74.9,-54.1,740.5112793,P-GPS,
895000,5:35:08 PM,40.99439118,20.79752892,26.7,740.5112793,1.61,223.825,740.9112793,27.1,9.31,-0.2,1.6,0,74.5,12.4,-7.4,1,74.9,-54.1,740.5112793,P-GPS,
895100,5:35:09 PM,40.99439089,20.79753034,26.7,740.5112793,1.32,223.705,740.9112793,27.1,9.31,-0.2,1.3,0,74.2,12.2,-6.7,1,74.9,-54.1,740.5112793,P-GPS,
895200,5:35:09 PM,40.99439061,20.79753137,26.7,740.5112793,1,223.619,740.9112793,27.1,9.31,-0.1,1,0,74.2,12.2,-5.9,1,74.9,-54.1,740.5112793,P-GPS,
895300,5:35:09 PM,40.99439044,20.79753217,26.7,740.5112793,0.7,223.551,740.9112793,27.1,9.31,0,0.7,0,74.2,10.8,-4.8,1,74.9,-54.1,740.5112793,P-GPS,
895400,5:35:09 PM,40.99439025,20.79753268,26.7,740.5112793,0.5,223.508,740.9112793,27.1,9.31,0,0.5,0,74.4,8,-3.2,1,74.9,-54.1,740.5112793,P-GPS,
895500,5:35:09 PM,40.99439013,20.79753306,26.7,740.5112793,0.4,223.477,740.9112793,27.1,9.31,0,0.4,0,74.5,5.8,-2.3,1,74.9,-54.1,740.5112793,P-GPS,
895600,5:35:09 PM,40.99438994,20.79753327,26.7,740.5112793,0.3,223.459,740.9112793,27.1,9.31,0,0.3,0,74.6,4.3,-1.5,1,74.9,-54.1,740.5112793,P-GPS,
895700,5:35:09 PM,40.99438982,20.79753342,26.7,740.5112793,0.2,223.447,740.9112793,27.1,9.31,0,0.2,0,74.7,3.2,-1.1,1,74.9,-54.1,740.5112793,P-GPS,
895800,5:35:09 PM,40.99438964,20.79753355,26.7,740.5112793,0.2,223.435,740.9112793,27.1,9.31,0,0.2,0,74.6,2.4,-0.6,1,74.9,-54.1,740.5112793,P-GPS,
895900,5:35:09 PM,40.99438953,20.79753364,26.7,740.5112793,0.1,223.427,740.9112793,27.1,9.31,0,0.1,0,74.7,1.8,-0.5,1,74.9,-54.1,740.5112793,P-GPS,
896000,5:35:09 PM,40.99438932,20.7975338,26.7,740.5112793,0.1,223.414,740.9112793,27.1,9.31,0,0.1,0,74.6,1.2,-0.1,1,74.9,-54.1,740.5112793,P-GPS,
896100,5:35:10 PM,40.99438918,20.7975339,26.7,740.5112793,0.1,223.405,740.9112793,27.1,9.31,0,0.1,0,74.7,0.9,0,1,74.9,-54.1,740.5112793,P-GPS,
896200,5:35:10 PM,40.99438897,20.79753412,26.7,740.5112793,0.1,223.386,740.9112793,27.1,9.31,0,0.1,0,74.7,0.8,0,1,74.9,-54.1,740.5112793,P-GPS,
896300,5:35:10 PM,40.99438883,20.7975343,26.7,740.5112793,0.1,223.372,740.9112793,27.1,9.31,0,0.1,0,74.6,0.8,0.1,1,74.9,-54.1,740.5112793,P-GPS,
896400,5:35:10 PM,40.99438862,20.79753458,26.7,740.5112793,0.1,223.348,740.9112793,27.1,9.31,0,0.1,0,74.5,0.6,0.1,1,74.9,-54.1,740.5112793,P-GPS,
896500,5:35:10 PM,40.99438848,20.79753481,26.7,740.5112793,0.1,223.329,740.9112793,27.1,9.31,0,0.1,0,74.7,0.6,0.3,1,74.9,-54.1,740.5112793,P-GPS,
896600,5:35:10 PM,40.9943883,20.79753514,26.7,740.5112793,0.1,223.301,740.9112793,27.1,9.31,0,0.1,0,74.6,0.9,-0.1,1,74.9,-54.1,740.5112793,P-GPS,
896700,5:35:10 PM,40.99438818,20.7975354,26.7,740.5112793,0.1,223.278,740.9112793,27.1,9.31,0,0.1,-0.1,74.4,1.2,-0.4,1,74.9,-54.1,740.5112793,P-GPS,
896800,5:35:10 PM,40.99438801,20.79753571,26.7,740.5112793,0.1,223.252,740.9112793,27.1,9.31,0,0.1,-0.1,74.6,1.2,-0.3,1,74.9,-54.1,740.5112793,P-GPS,
896900,5:35:10 PM,40.99438789,20.79753594,26.7,740.5112793,0.1,223.233,740.9112793,27.1,9.31,0,0.1,-0.1,74.5,1.2,-0.3,1,74.9,-54.1,740.5112793,P-GPS,
897000,5:35:10 PM,40.99438775,20.79753618,26.7,740.5112793,0.1,223.213,740.9112793,27.1,9.31,0,0.1,-0.1,74.6,1.2,-0.4,1,74.9,-54.1,740.5112793,P-GPS,
897100,5:35:10 PM,40.99438767,20.79753636,26.7,740.5112793,0.1,223.197,740.9112793,27.1,9.31,0,0.1,0,74.5,1.3,-0.4,1,74.9,-54.1,740.5112793,P-GPS,
897200,5:35:11 PM,40.99438759,20.79753652,26.7,740.5112793,0.1,223.184,740.9112793,27.1,9.31,0,0.1,0,74.7,1.2,-0.4,1,74.9,-54.1,740.5112793,P-GPS,
897300,5:35:11 PM,40.99438756,20.79753665,26.7,740.5112793,0,223.174,740.9112793,27.1,9.31,0,0,0,74.7,1.4,-0.4,1,74.9,-54.1,740.5112793,P-GPS,
897400,5:35:11 PM,40.99438753,20.79753671,26.7,740.5112793,0,223.168,740.9112793,27.1,9.31,0,0,0,74.7,1.6,-0.4,1,74.9,-54.1,740.5112793,P-GPS,
897500,5:35:11 PM,40.99438752,20.79753676,26.7,740.5112793,0,223.164,740.9112793,27.1,9.31,0,0,0,74.7,1.5,-0.4,1,74.9,-54.1,740.5112793,P-GPS,
897600,5:35:11 PM,40.99438747,20.79753679,26.8,740.6112793,0,223.161,740.9112793,27.1,9.31,0,0,0,74.8,1.2,-0.2,1,74.9,-54.1,740.6112793,P-GPS,
897700,5:35:11 PM,40.99438745,20.79753682,26.8,740.6112793,0,223.159,740.9112793,27.1,9.31,0,0,0,74.7,1.2,0.1,1,74.9,-54.1,740.6112793,P-GPS,
897800,5:35:11 PM,40.99438736,20.79753678,26.8,740.6112793,0,223.162,740.9112793,27.1,9.31,0,0,0,74.7,0.9,0.2,1,74.9,-54.1,740.6112793,P-GPS,
897900,5:35:11 PM,40.99438731,20.79753675,26.8,740.6112793,0,223.164,740.9112793,27.1,9.31,0,0,0,74.7,0.7,0.3,1,74.9,-54.1,740.6112793,P-GPS,
898000,5:35:11 PM,40.99438722,20.79753671,26.8,740.6112793,0,223.168,740.9112793,27.1,9.31,0,0,0,74.5,0.7,0.4,1,74.9,-54.1,740.6112793,P-GPS,
898100,5:35:11 PM,40.99438718,20.79753668,26.8,740.6112793,0,223.17,740.9112793,27.1,9.31,0,0,0,74.5,0.7,0.6,1,74.9,-54.1,740.6112793,P-GPS,
898200,5:35:12 PM,40.99438709,20.79753663,26.8,740.6112793,0,223.175,740.9112793,27.1,9.31,0,0,0,74.7,0.7,0.6,1,74.9,-54.1,740.6112793,P-GPS,
898300,5:35:12 PM,40.99438703,20.7975366,26.7,740.5112793,0,223.177,740.9112793,27.1,9.31,0,0,0,74.6,0.7,0.6,1,74.9,-54.1,740.5112793,P-GPS,
898400,5:35:12 PM,40.99438694,20.79753654,26.7,740.5112793,0,223.182,740.9112793,27.1,9.31,0,0,0,74.6,0.6,0.4,1,74.9,-54.1,740.5112793,P-GPS,
898500,5:35:12 PM,40.99438688,20.79753652,26.7,740.5112793,0,223.184,740.9112793,27.1,9.31,0,0,0,74.8,0.8,0.4,1,74.7,-54.1,740.5112793,P-GPS,
898600,5:35:12 PM,40.99438676,20.7975365,26.7,740.5112793,0,223.186,740.9112793,27.1,9.31,0,0,0,74.6,0.8,0.5,1,74.5,-54.1,740.5112793,P-GPS,
898700,5:35:12 PM,40.99438668,20.79753649,26.7,740.5112793,0,223.186,740.9112793,27.1,9.31,0,0,0,74.4,0.8,0.5,1,74.2,-54.1,740.5112793,P-GPS,
898800,5:35:12 PM,40.99438658,20.79753646,26.7,740.5112793,0,223.189,740.9112793,27.1,9.31,0,0,0,74,0.1,0.3,1,73.7,-54.1,740.5112793,P-GPS,
898900,5:35:12 PM,40.99438652,20.79753645,26.7,740.5112793,0,223.189,740.9112793,27.1,9.31,0,0,0,73.8,-0.1,0.8,1,73.2,-54.1,740.5112793,P-GPS,
899000,5:35:12 PM,40.99438648,20.79753646,26.7,740.5112793,0,223.189,740.9112793,27.1,9.31,0,0,0,73.3,0,1.8,1,72.5,-54.1,740.5112793,P-GPS,
899100,5:35:13 PM,40.99438645,20.79753651,26.8,740.6112793,0,223.184,740.9112793,27.1,9.31,0,0,-0.1,72.8,0.1,2.9,1,71.8,-54.1,740.6112793,P-GPS,
899200,5:35:13 PM,40.99438637,20.79753658,26.8,740.6112793,0.1,223.179,740.9112793,27.1,9.31,0,0.1,-0.1,72.2,0.1,3.4,1,71.2,-54.1,740.6112793,P-GPS,
899300,5:35:13 PM,40.99438627,20.79753668,26.8,740.6112793,0.1,223.169,740.9112793,27.1,9.31,0,0.1,0,71.6,0.2,3.4,1,70.8,-54.1,740.6112793,P-GPS,
899400,5:35:13 PM,40.99438609,20.79753684,26.8,740.6112793,0.1,223.156,740.9112793,27.1,9.31,0,0.1,0,71.1,0.3,3.8,1,70.5,-54.1,740.6112793,P-GPS,
899500,5:35:13 PM,40.9943859,20.79753703,26.8,740.6112793,0.14,223.14,740.9112793,27.1,9.31,-0.1,0.1,0,70.6,0.4,3.8,1,70.2,-54.1,740.6112793,P-GPS,
899600,5:35:13 PM,40.99438562,20.79753724,26.8,740.6112793,0.22,223.123,740.9112793,27.1,9.31,-0.1,0.2,0,70.2,0.3,3.7,1,70,-54.1,740.6112793,P-GPS,
899700,5:35:13 PM,40.99438533,20.79753748,26.7,740.5112793,0.28,223.102,740.9112793,27.1,9.31,-0.2,0.2,0,70,0.3,3.5,1,69.8,-54.1,740.5112793,P-GPS,
899800,5:35:13 PM,40.99438498,20.79753775,26.7,740.5112793,0.28,223.079,740.9112793,27.1,9.31,-0.2,0.2,0,69.9,0.2,3.8,1,69.7,-54.1,740.5112793,P-GPS,
899900,5:35:13 PM,40.99438463,20.79753806,26.7,740.5112793,0.36,223.053,740.9112793,27.1,9.31,-0.3,0.2,0,69.6,0.5,4.3,1,69.5,-54.1,740.5112793,P-GPS,
900000,5:35:13 PM,40.9943842,20.79753841,26.7,740.5112793,0.42,223.024,740.9112793,27.1,9.31,-0.3,0.3,0,69.5,0.6,5.1,1,69.4,-54.1,740.5112793,P-GPS,
900100,5:35:13 PM,40.99438374,20.79753879,26.7,740.5112793,0.42,222.991,740.9112793,27.1,9.31,-0.4,0.3,0,69.3,0.8,5.9,1,69.2,-54.1,740.5112793,P-GPS,
900200,5:35:14 PM,40.99438321,20.79753916,26.7,740.5112793,0.58,222.96,740.9112793,27.1,9.31,-0.5,0.3,0,69.1,0.8,6.7,1,69,-54.1,740.5112793,P-GPS,
900300,5:35:14 PM,40.99438262,20.79753958,26.7,740.5112793,0.67,222.924,740.9112793,27.1,9.31,-0.6,0.3,0,68.9,0.8,7.6,1,68.8,-54.1,740.5112793,P-GPS,
900400,5:35:14 PM,40.99438188,20.79753999,26.7,740.5112793,0.67,222.889,740.9112793,27.1,9.31,-0.7,0.4,0,68.8,0.8,8.5,1,68.6,-54.1,740.5112793,P-GPS,
900500,5:35:14 PM,40.99438106,20.79754048,26.7,740.5112793,0.89,222.848,740.9112793,27.1,9.31,-0.8,0.4,0,68.7,0.8,9.3,1,68.4,-54.1,740.5112793,P-GPS,
900600,5:35:14 PM,40.99438011,20.79754103,26.7,740.5112793,1.03,222.801,740.9112793,27.1,9.31,-0.9,0.5,0,68.7,0.9,9.8,1,68.2,-54.1,740.5112793,P-GPS,
