time(millisecond),datetime(utc),latitude,longitude,height_above_takeoff(meters),height_above_ground_at_drone_location(meters),ground_elevation_at_drone_location(meters),altitude_above_seaLevel(meters),height_sonar(meters),speed(m/s),distance(meters),satellites,gpslevel,voltage(v),max_altitude(meters),max_ascent(meters),max_speed(m/s),max_distance(meters), xSpeed(m/s), ySpeed(m/s), zSpeed(m/s), compass_heading(degrees), pitch(degrees), roll(degrees),isPhoto,isVideo,rc_elevator,rc_aileron,rc_throttle,rc_rudder,gimbal_heading(degrees),gimbal_pitch(degrees),battery_percent,voltageCell1,voltageCell2,voltageCell3,voltageCell4,voltageCell5,voltageCell6,current(A),battery_temperature(c),altitude(meters),ascent(meters),flycStateRaw,flycState,message
976100,7/16/2020 17:19,41.987063,21.48660433,37.2,,,269.8631165,10.5,0,4.64742,18,5,15.071,269.9631165,37.3,1.75,4.64742,0,0,0,306.2,-1.5,3,0,1,1112,1024,1024,1024,300.2,-84.9,45,3.774,3.77,3.767,3.76,0,0,0,,269.8631165,37.2,6,P-GPS,
976200,7/16/2020 17:19,41.98706297,21.48660432,37.2,,,269.8631165,10.5,0,4.64977,18,5,15.071,269.9631165,37.3,1.75,4.64977,0,0,0,306.3,-1.5,3.5,0,1,1158,1024,1024,1024,300.2,-84.9,45,3.774,3.77,3.767,3.76,0,0,0,,269.8631165,37.2,6,P-GPS,
976300,7/16/2020 17:19,41.98706297,21.48660443,37.2,,,269.8631165,10.5,0,4.65589,18,5,15.071,269.9631165,37.3,1.75,4.65589,0,0,0,306.2,-1.6,3.6,0,1,1174,1024,1024,1024,300.2,-84.9,45,3.774,3.77,3.767,3.76,0,0,0,,269.8631165,37.2,6,P-GPS,
976400,7/16/2020 17:19,41.98706294,21.48660444,37.2,,,269.8631165,10.5,0,4.65896,18,5,15.071,269.9631165,37.3,1.75,4.65896,0,0,0,306.1,-2.2,3.6,0,1,1234,1024,1024,1024,300.2,-84.9,45,3.774,3.77,3.767,3.76,0,0,0,,269.8631165,37.2,6,P-GPS,
976500,7/16/2020 17:19,41.98706299,21.48660442,37.3,,,269.9631165,10.5,0,4.65466,18,5,15.071,269.9631165,37.3,1.75,4.65896,0,0,0,306.2,-2.6,3.6,0,1,1245,1024,1024,1024,300.2,-84.9,45,3.774,3.77,3.767,3.76,0,0,0,,269.9631165,37.3,6,P-GPS,
976600,7/16/2020 17:19,41.98706298,21.48660443,37.3,,,269.9631165,10.5,0,4.65498,18,5,15.084,269.9631165,37.3,1.75,4.65896,0,0,0,306.2,-3.2,3.4,0,1,1222,1024,1024,1024,300.2,-84.9,45,3.778,3.774,3.77,3.762,0,0,0,,269.9631165,37.3,6,P-GPS,
976700,7/16/2020 17:19,41.98706293,21.48660425,37.2,,,269.8631165,10.5,0,4.64856,18,5,15.084,269.9631165,37.3,1.75,4.65896,0,0,0,306.1,-4,3.1,0,1,1219,1024,1024,1024,300.2,-84.9,45,3.778,3.774,3.77,3.762,0,0,0,,269.8631165,37.2,6,P-GPS,
976800,7/16/2020 17:19,41.98706295,21.48660418,37.2,,,269.8631165,10.5,0,4.64284,18,5,15.084,269.9631165,37.3,1.75,4.65896,0,0,0,306.2,-4.3,3.3,0,1,1229,1024,1024,1024,300.2,-84.9,45,3.778,3.774,3.77,3.762,0,0,0,,269.8631165,37.2,6,P-GPS,
976900,7/16/2020 17:19,41.98706304,21.48660409,37.2,,,269.8631165,10.5,0.1,4.63064,18,5,15.084,269.9631165,37.3,1.75,4.65896,0,-0.1,0,306.1,-4.3,3.3,0,1,1229,1024,1024,1024,300.2,-84.9,45,3.778,3.774,3.77,3.762,0,0,0,,269.8631165,37.2,6,P-GPS,
977000,7/16/2020 17:19,41.9870631,21.48660395,37.2,,,269.8631165,10.5,0.1,4.61796,18,5,15.084,269.9631165,37.3,1.75,4.65896,0,-0.1,0,306.2,-4.6,3.4,0,1,1229,1024,1024,1024,300.2,-84.9,45,3.778,3.774,3.77,3.762,0,0,0,,269.8631165,37.2,6,P-GPS,
977100,7/16/2020 17:19,41.98706298,21.48660375,37.2,,,269.8631165,10.5,0.14,4.61512,17,5,15.084,269.9631165,37.3,1.75,4.65896,0.1,-0.1,0,306,-4.8,3.2,0,1,1251,1024,1024,1024,300.2,-84.9,45,3.778,3.774,3.77,3.762,0,0,0,,269.8631165,37.2,6,P-GPS,
977200,7/16/2020 17:19,41.98706306,21.48660353,37.2,,,269.8631165,10.5,0.14,4.59631,17,5,15.084,269.9631165,37.3,1.75,4.65896,0.1,-0.1,0,306.2,-4.8,3.5,0,1,1262,1024,1024,1024,300.2,-84.9,45,3.778,3.774,3.77,3.762,0,0,0,,269.8631165,37.2,6,P-GPS,
977300,7/16/2020 17:19,41.98706323,21.48660317,37.2,,,269.8631165,10.5,0.22,4.56226,17,5,15.084,269.9631165,37.3,1.75,4.65896,0.1,-0.2,0,306,-4.9,3.4,0,1,1262,1024,1024,1024,300.2,-84.9,45,3.778,3.774,3.77,3.762,0,0,0,,269.8631165,37.2,6,P-GPS,
977400,7/16/2020 17:19,41.98706336,21.48660287,37.2,,,269.8631165,10.5,0.22,4.53465,17,5,15.084,269.9631165,37.3,1.75,4.65896,0.1,-0.2,0,306.1,-5.1,3.4,0,1,1272,1024,1024,1024,300.2,-84.9,45,3.778,3.774,3.77,3.762,0,0,0,,269.8631165,37.2,6,P-GPS,
977500,7/16/2020 17:19,41.9870636,21.48660266,37.2,,,269.8631165,10.5,0.28,4.50289,17,5,15.084,269.9631165,37.3,1.75,4.65896,0.2,-0.2,0,306.1,-5.3,3.4,0,1,1272,1024,1024,1024,300.2,-84.9,45,3.778,3.774,3.77,3.762,0,0,0,,269.8631165,37.2,6,P-GPS,
977600,7/16/2020 17:19,41.98706379,21.48660229,37.2,,,269.8631165,10.5,0.36,4.46651,17,5,15.075,269.9631165,37.3,1.75,4.65896,0.2,-0.3,0,306.1,-5.7,3.3,0,1,1268,1024,1024,1024,300.2,-84.9,45,3.775,3.772,3.768,3.76,0,0,0,,269.8631165,37.2,6,P-GPS,
977700,7/16/2020 17:19,41.98706397,21.48660203,37.1,,,269.7631165,10.5,0.36,4.43741,17,5,15.075,269.9631165,37.3,1.75,4.65896,0.2,-0.3,0,306.1,-6,3.1,0,1,1263,1024,1024,1024,300.2,-84.9,45,3.775,3.772,3.768,3.76,0,0,0,,269.7631165,37.1,6,P-GPS,
977800,7/16/2020 17:19,41.98706421,21.48660157,37.1,,,269.7631165,10.5,0.42,4.39192,17,5,15.075,269.9631165,37.3,1.75,4.65896,0.3,-0.3,0,306.1,-6,3.1,0,1,1247,1024,1024,1024,300.2,-84.9,45,3.775,3.772,3.768,3.76,0,0,0,,269.7631165,37.1,6,P-GPS,
977900,7/16/2020 17:19,41.98706457,21.48660115,37.1,,,269.7631165,10.5,0.5,4.33832,17,5,15.075,269.9631165,37.3,1.75,4.65896,0.3,-0.4,0,306.1,-5.8,3.2,0,1,1255,1024,1024,1024,300.2,-84.9,45,3.775,3.772,3.768,3.76,0,0,0,,269.7631165,37.1,6,P-GPS,
978000,7/16/2020 17:19,41.98706487,21.48660059,37.1,,,269.7631165,10.5,0.5,4.28234,17,5,15.075,269.9631165,37.3,1.75,4.65896,0.3,-0.4,0,306.1,-5.4,3.2,0,1,1292,1024,1024,1024,300.2,-84.9,45,3.775,3.772,3.768,3.76,0,0,0,,269.7631165,37.1,6,P-GPS,
978100,7/16/2020 17:19,41.98706527,21.48660017,37.1,,,269.7631165,10.5,0.58,4.226,17,5,15.075,269.9631165,37.3,1.75,4.65896,0.3,-0.5,0,306.2,-5,3.2,0,1,1275,1024,1024,1024,300.2,-84.9,45,3.775,3.772,3.768,3.76,0,0,0,,269.7631165,37.1,6,P-GPS,
978200,7/16/2020 17:19,41.98706563,21.48659956,37.1,,,269.7631165,10.5,0.64,4.16251,17,5,15.075,269.9631165,37.3,1.75,4.65896,0.4,-0.5,0,306.1,-5.3,3,0,1,1265,1024,1024,1024,300.2,-84.9,45,3.775,3.772,3.768,3.76,0,0,0,,269.7631165,37.1,6,P-GPS,
978300,7/16/2020 17:19,41.9870662,21.48659906,37.1,,,269.7631165,10.5,0.64,4.08853,17,5,15.075,269.9631165,37.3,1.75,4.65896,0.4,-0.5,0,306.1,-5.9,3,0,1,1266,1024,1024,1024,300.2,-84.9,45,3.775,3.772,3.768,3.76,0,0,0,,269.7631165,37.1,6,P-GPS,
978400,7/16/2020 17:19,41.98706662,21.48659839,37.1,,,269.7631165,10.5,0.64,4.01628,17,5,15.075,269.9631165,37.3,1.75,4.65896,0.4,-0.5,0,306,-5.7,2.9,0,1,1266,1024,1024,1024,300.2,-84.9,45,3.775,3.772,3.768,3.76,0,0,0,,269.7631165,37.1,6,P-GPS,
978500,7/16/2020 17:19,41.98706705,21.48659773,37.1,,,269.7631165,10.5,0.78,3.94351,18,5,15.075,269.9631165,37.3,1.75,4.65896,0.5,-0.6,0,306.1,-5.4,2.9,0,1,1267,1024,1024,1024,300.2,-84.9,45,3.775,3.772,3.768,3.76,0,0,0,,269.7631165,37.1,6,P-GPS,
978600,7/16/2020 17:19,41.98706752,21.48659698,37.1,,,269.7631165,10.5,0.78,3.86328,18,5,15.069,269.9631165,37.3,1.75,4.65896,0.5,-0.6,0,306,-5.3,2.8,0,1,1266,1024,1024,1024,300.2,-84.9,45,3.775,3.77,3.766,3.758,0,0,0,,269.7631165,37.1,6,P-GPS,
978700,7/16/2020 17:19,41.98706815,21.48659614,37.1,,,269.7631165,10.5,0.78,3.76481,18,5,15.069,269.9631165,37.3,1.75,4.65896,0.5,-0.6,0,306.1,-5,2.8,0,1,1267,1024,1024,1024,300.2,-84.9,45,3.775,3.77,3.766,3.758,0,0,0,,269.7631165,37.1,6,P-GPS,
978800,7/16/2020 17:19,41.98706866,21.48659532,37.1,,,269.7631165,10.5,0.86,3.67636,18,5,15.069,269.9631165,37.3,1.75,4.65896,0.5,-0.7,0,306.1,-4.9,2.8,0,1,1272,1024,1024,1024,300.2,-84.9,45,3.775,3.77,3.766,3.758,0,0,0,,269.7631165,37.1,6,P-GPS,
978900,7/16/2020 17:19,41.98706916,21.48659452,37.1,,,269.7631165,10.5,0.86,3.59046,18,5,15.069,269.9631165,37.3,1.75,4.65896,0.6,-0.7,0,306,-4.8,2.8,0,1,1276,1024,1024,1024,300.2,-84.9,45,3.775,3.77,3.766,3.758,0,0,0,,269.7631165,37.1,6,P-GPS,
979000,7/16/2020 17:19,41.9870697,21.48659363,37.1,,,269.7631165,10.5,0.92,3.49624,18,5,15.069,269.9631165,37.3,1.75,4.65896,0.6,-0.7,0,306.1,-4.8,2.8,0,1,1270,1024,1024,1024,300.2,-84.9,45,3.775,3.77,3.766,3.758,0,0,0,,269.7631165,37.1,6,P-GPS,
979100,7/16/2020 17:19,41.98707027,21.48659269,37.1,,,269.7631165,10.5,0.92,3.39682,18,5,15.069,269.9631165,37.3,1.75,4.65896,0.6,-0.7,0,306.1,-4.9,2.7,0,1,1277,1024,1024,1024,300.2,-84.9,45,3.775,3.77,3.766,3.758,0,0,0,,269.7631165,37.1,6,P-GPS,
979200,7/16/2020 17:19,41.98707084,21.48659174,37,,,269.6631165,10.5,1,3.29633,18,5,15.069,269.9631165,37.3,1.75,4.65896,0.6,-0.8,0,306,-4.8,2.7,0,1,1278,1024,1024,1024,300.2,-84.9,45,3.775,3.77,3.766,3.758,0,0,0,,269.6631165,37,6,P-GPS,
979300,7/16/2020 17:19,41.98707149,21.48659078,37,,,269.6631165,10.5,1,3.18956,18,5,15.069,269.9631165,37.3,1.75,4.65896,0.6,-0.8,0,306.1,-4.6,2.8,0,1,1278,1024,1024,1024,300.2,-84.9,45,3.775,3.77,3.766,3.758,0,0,0,,269.6631165,37,6,P-GPS,
979400,7/16/2020 17:19,41.98707209,21.48658976,37.1,,,269.7631165,10.5,1,3.08271,18,5,15.069,269.9631165,37.3,1.75,4.65896,0.6,-0.8,0,306.1,-4.6,2.8,0,1,1281,1024,1024,1024,300.2,-84.9,45,3.775,3.77,3.766,3.758,0,0,0,,269.7631165,37.1,6,P-GPS,
979500,7/16/2020 17:19,41.98707282,21.48658863,37.1,,,269.7631165,10.5,1.08,2.96024,18,5,15.069,269.9631165,37.3,1.75,4.65896,0.6,-0.9,0,306.2,-4.6,3,0,1,1299,1024,1024,1024,300.2,-84.9,45,3.775,3.77,3.766,3.758,0,0,0,,269.7631165,37.1,6,P-GPS,
979600,7/16/2020 17:19,41.98707346,21.48658755,37.1,,,269.7631165,10.5,1.14,2.84706,18,5,15.069,269.9631165,37.3,1.75,4.65896,0.7,-0.9,0,306.2,-4.7,2.8,0,1,1302,1024,1024,1024,300.2,-84.9,45,3.774,3.77,3.766,3.759,0,0,0,,269.7631165,37.1,6,P-GPS,
979700,7/16/2020 17:19,41.98707411,21.48658645,37.1,,,269.7631165,10.5,1.14,2.73204,17,5,15.069,269.9631165,37.3,1.75,4.65896,0.7,-0.9,0,306.1,-4.9,2.9,0,1,1297,1024,1024,1024,300.2,-84.9,45,3.774,3.77,3.766,3.759,0,0,0,,269.7631165,37.1,6,P-GPS,
979800,7/16/2020 17:19,41.98707479,21.48658532,37.1,,,269.7631165,10.5,1.14,2.6136,17,5,15.069,269.9631165,37.3,1.75,4.65896,0.7,-0.9,0,306.1,-5.2,2.9,0,1,1293,1024,1024,1024,300.2,-84.9,45,3.774,3.77,3.766,3.759,0,0,0,,269.7631165,37.1,6,P-GPS,
979900,7/16/2020 17:19,41.98707554,21.48658403,37.1,,,269.7631165,10.5,1.14,2.48074,17,5,15.069,269.9631165,37.3,1.75,4.65896,0.7,-0.9,0,306.1,-5.4,2.8,0,1,1289,1024,1024,1024,300.2,-84.9,45,3.774,3.77,3.766,3.759,0,0,0,,269.7631165,37.1,6,P-GPS,
980000,7/16/2020 17:19,41.98707625,21.48658282,37.1,,,269.7631165,10.5,1.22,2.35484,17,5,15.069,269.9631165,37.3,1.75,4.65896,0.7,-1,0,306.1,-5.4,2.8,0,1,1288,1024,1024,1024,300.2,-84.9,45,3.774,3.77,3.766,3.759,0,0,0,,269.7631165,37.1,6,P-GPS,
980100,7/16/2020 17:19,41.98707694,21.48658163,37.1,,,269.7631165,10.5,1.28,2.23315,17,5,15.069,269.9631165,37.3,1.75,4.65896,0.8,-1,0,306.2,-5.2,2.9,0,1,1288,1024,1024,1024,300.2,-84.9,45,3.774,3.77,3.766,3.759,0,0,0,,269.7631165,37.1,6,P-GPS,
980200,7/16/2020 17:19,41.98707769,21.48658036,37.1,,,269.7631165,10.5,1.28,2.102,17,5,15.069,269.9631165,37.3,1.75,4.65896,0.8,-1,0,306.2,-5.1,2.8,0,1,1289,1024,1024,1024,300.2,-84.9,45,3.774,3.77,3.766,3.759,0,0,0,,269.7631165,37.1,6,P-GPS,
980300,7/16/2020 17:19,41.98707866,21.48657876,37.1,,,269.7631165,10.5,1.36,1.93485,17,5,15.069,269.9631165,37.3,1.75,4.65896,0.8,-1.1,0,306.1,-5,2.7,0,1,1289,1024,1024,1024,300.2,-84.9,45,3.774,3.77,3.766,3.759,0,0,0,,269.7631165,37.1,6,P-GPS,
980400,7/16/2020 17:19,41.98707946,21.48657741,37.1,,,269.7631165,10.5,1.36,1.79608,17,5,15.069,269.9631165,37.3,1.75,4.65896,0.8,-1.1,0,306.1,-5,2.5,0,1,1289,1024,1024,1024,300.2,-84.9,45,3.774,3.77,3.766,3.759,0,0,0,,269.7631165,37.1,6,P-GPS,
980500,7/16/2020 17:19,41.98708006,21.48657618,37.1,,,269.7631165,10.5,1.36,1.68148,17,5,15.069,269.9631165,37.3,1.75,4.65896,0.8,-1.1,0,306.1,-4.8,2.5,0,1,1295,1024,1024,1024,300.2,-84.9,45,3.774,3.77,3.766,3.759,0,0,0,,269.7631165,37.1,6,P-GPS,
980600,7/16/2020 17:19,41.98708086,21.48657478,37.1,,,269.7631165,10.5,1.36,1.5419,17,5,15.071,269.9631165,37.3,1.75,4.65896,0.8,-1.1,-0.1,306.1,-4.4,3,0,1,1304,1024,1024,1024,300.2,-84.9,45,3.775,3.77,3.767,3.759,0,0,0,,269.7631165,37.1,6,P-GPS,
980700,7/16/2020 17:19,41.98708161,21.4865731,37.1,,,269.7631165,10.5,1.36,1.39663,18,5,15.071,269.9631165,37.3,1.75,4.65896,0.8,-1.1,-0.1,306.2,-4.5,3.1,0,1,1316,1024,1024,1024,300.2,-84.9,45,3.775,3.77,3.767,3.759,0,0,0,,269.7631165,37.1,6,P-GPS,
980800,7/16/2020 17:19,41.98708243,21.48657163,37.1,,,269.7631165,10.5,1.44,1.25699,18,5,15.071,269.9631165,37.3,1.75,4.65896,0.8,-1.2,-0.1,306.3,-4.5,3.1,0,1,1316,1024,1024,1024,300.2,-84.9,45,3.775,3.77,3.767,3.759,0,0,0,,269.7631165,37.1,6,P-GPS,
980900,7/16/2020 17:19,41.98708329,21.48657012,37.1,,,269.7631165,10.5,1.5,1.1148,18,5,15.071,269.9631165,37.3,1.75,4.65896,0.9,-1.2,-0.1,306.3,-5,3.2,0,1,1312,1024,1024,1024,300.2,-84.9,45,3.775,3.77,3.767,3.759,0,0,0,,269.7631165,37.1,6,P-GPS,
981000,7/16/2020 17:19,41.98708413,21.48656861,37.1,,,269.7631165,10.5,1.5,0.97822,18,5,15.071,269.9631165,37.3,1.75,4.65896,0.9,-1.2,0,306.3,-5.4,3,0,1,1313,1024,1024,1024,300.2,-84.9,45,3.775,3.77,3.767,3.759,0,0,0,,269.7631165,37.1,6,P-GPS,
981100,7/16/2020 17:19,41.98708497,21.48656708,37.1,,,269.7631165,10.5,1.5,0.848982,18,5,15.071,269.9631165,37.3,1.75,4.65896,0.9,-1.2,0,306.2,-5.8,2.7,0,1,1314,1024,1024,1024,300.2,-84.9,45,3.775,3.77,3.767,3.759,0,0,0,,269.7631165,37.1,6,P-GPS,
981200,7/16/2020 17:19,41.98708585,21.4865655,37.1,,,269.7631165,10.5,1.58,0.725164,18,5,15.071,269.9631165,37.3,1.75,4.65896,0.9,-1.3,0,306.1,-5.7,2.7,0,1,1299,1024,1024,1024,300.2,-84.9,45,3.775,3.77,3.767,3.759,0,0,0,,269.7631165,37.1,6,P-GPS,
981300,7/16/2020 17:19,41.98708666,21.48656371,37.1,,,269.7631165,10.5,1.58,0.628884,18,5,15.071,269.9631165,37.3,1.75,4.65896,0.9,-1.3,0,306.2,-5.5,2.9,0,1,1299,1024,1024,1024,300.2,-84.9,45,3.775,3.77,3.767,3.759,0,0,0,,269.7631165,37.1,6,P-GPS,
981400,7/16/2020 17:19,41.98708758,21.48656201,37.1,,,269.7631165,10.5,1.72,0.557042,18,5,15.071,269.9631165,37.3,1.75,4.65896,1,-1.4,0,306.2,-4.9,3.2,0,1,1297,1024,1024,1024,300.2,-84.9,45,3.775,3.77,3.767,3.759,0,0,0,,269.7631165,37.1,6,P-GPS,
981500,7/16/2020 17:19,41.98708848,21.48656016,37.1,,,269.7631165,10.5,1.72,0.542475,18,5,15.071,269.9631165,37.3,1.75,4.65896,1,-1.4,0,306.2,-4.4,3.2,0,1,1288,1024,1024,1024,300.2,-84.9,45,3.775,3.77,3.767,3.759,0,0,0,,269.7631165,37.1,6,P-GPS,
981600,7/16/2020 17:19,41.98708942,21.48655838,37.1,,,269.7631165,10.5,1.72,0.580469,18,5,15.075,269.9631165,37.3,1.75,4.65896,1,-1.4,0,306.2,-4,3.1,0,1,1281,1024,1024,1024,300.2,-84.9,45,3.775,3.772,3.768,3.76,0,0,0,,269.7631165,37.1,6,P-GPS,
981700,7/16/2020 17:19,41.98709039,21.48655647,37.1,,,269.7631165,10.5,1.72,0.675959,18,5,15.075,269.9631165,37.3,1.75,4.65896,1,-1.4,0,306.1,-3.6,3.3,0,1,1286,1024,1024,1024,300.2,-84.9,45,3.775,3.772,3.768,3.76,0,0,0,,269.7631165,37.1,6,P-GPS,
981800,7/16/2020 17:19,41.98709135,21.48655465,37.2,,,269.8631165,10.5,1.72,0.799433,18,5,15.075,269.9631165,37.3,1.75,4.65896,1,-1.4,-0.1,306.2,-3.1,3.4,0,1,1301,1024,1024,1024,300.2,-84.9,45,3.775,3.772,3.768,3.76,0,0,0,,269.8631165,37.2,6,P-GPS,
981900,7/16/2020 17:19,41.98709223,21.48655271,37.1,,,269.7631165,10.5,1.72,0.952404,18,5,15.075,269.9631165,37.3,1.75,4.65896,1,-1.4,0,306.4,-2.7,3.7,0,1,1288,1024,1024,1024,300.2,-84.9,45,3.775,3.772,3.768,3.76,0,0,0,,269.7631165,37.1,6,P-GPS,
982000,7/16/2020 17:19,41.98709319,21.48655088,37.1,,,269.7631165,10.5,1.72,1.10793,18,5,15.075,269.9631165,37.3,1.75,4.65896,1,-1.4,0,306.4,-3.2,3.6,0,1,1291,1024,1024,1024,300.2,-84.9,45,3.775,3.772,3.768,3.76,0,0,0,,269.7631165,37.1,6,P-GPS,
982100,7/16/2020 17:19,41.98709417,21.48654912,37.1,,,269.7631165,10.5,1.72,1.26624,18,5,15.075,269.9631165,37.3,1.75,4.65896,1,-1.4,0,306.3,-3.7,3,0,1,1302,1024,1024,1024,300.2,-84.9,45,3.775,3.772,3.768,3.76,0,0,0,,269.7631165,37.1,6,P-GPS,
982200,7/16/2020 17:19,41.98709514,21.4865473,37.1,,,269.7631165,10.5,1.72,1.43501,18,5,15.075,269.9631165,37.3,1.75,4.65896,1,-1.4,0,306.3,-4,2.9,0,1,1307,1024,1024,1024,300.2,-84.9,45,3.775,3.772,3.768,3.76,0,0,0,,269.7631165,37.1,6,P-GPS,
982300,7/16/2020 17:19,41.98709609,21.4865454,37.1,,,269.7631165,10.5,1.78,1.61314,18,5,15.075,269.9631165,37.3,1.78,4.65896,1.1,-1.4,0,306.2,-4,2.7,0,1,1314,1024,1024,1024,300.2,-84.9,45,3.775,3.772,3.768,3.76,0,0,0,,269.7631165,37.1,6,P-GPS,
982400,7/16/2020 17:19,41.98709708,21.48654353,37.1,,,269.7631165,10.5,1.86,1.79218,18,5,15.075,269.9631165,37.3,1.86,4.65896,1.1,-1.5,0,306.2,-4,2.7,0,1,1304,1024,1024,1024,300.2,-84.9,45,3.775,3.772,3.768,3.76,0,0,0,,269.7631165,37.1,6,P-GPS,
982500,7/16/2020 17:19,41.98709816,21.48654171,37.1,,,269.7631165,10.5,1.86,1.97283,18,5,15.075,269.9631165,37.3,1.86,4.65896,1.1,-1.5,0,306.1,-4.1,2.7,0,1,1308,1024,1024,1024,300.2,-84.9,45,3.775,3.772,3.768,3.76,0,0,0,,269.7631165,37.1,6,P-GPS,
982600,7/16/2020 17:19,41.98709916,21.48653979,37.1,,,269.7631165,10.5,1.86,2.15946,18,5,15.075,269.9631165,37.3,1.86,4.65896,1.1,-1.5,0,306.1,-4.1,2.9,0,1,1315,1024,1024,1024,300.2,-84.9,45,3.775,3.772,3.768,3.76,0,0,0,,269.7631165,37.1,6,P-GPS,
982700,7/16/2020 17:19,41.98710007,21.48653785,37.1,,,269.7631165,10.5,1.86,2.34541,18,5,15.079,269.9631165,37.3,1.86,4.65896,1.1,-1.5,0,306.2,-3.9,3.1,0,1,1335,1024,1024,1024,300.2,-84.9,45,3.777,3.772,3.769,3.761,0,0,0,,269.7631165,37.1,6,P-GPS,
982800,7/16/2020 17:19,41.98710108,21.48653591,37.1,,,269.7631165,10.5,1.86,2.53663,18,5,15.079,269.9631165,37.3,1.86,4.65896,1.1,-1.5,0,306.2,-3.9,3.2,0,1,1335,1024,1024,1024,300.2,-84.9,45,3.777,3.772,3.769,3.761,0,0,0,,269.7631165,37.1,6,P-GPS,
982900,7/16/2020 17:19,41.9871022,21.48653379,37.1,,,269.7631165,10.5,1.86,2.74649,18,5,15.079,269.9631165,37.3,1.86,4.65896,1.1,-1.5,0,306.2,-4.2,3.3,0,1,1333,1024,1024,1024,300.2,-84.9,45,3.777,3.772,3.769,3.761,0,0,0,,269.7631165,37.1,6,P-GPS,
983000,7/16/2020 17:19,41.98710324,21.48653181,37.2,,,269.8631165,10.5,1.86,2.94342,18,5,15.079,269.9631165,37.3,1.86,4.65896,1.1,-1.5,0,306.2,-4.7,3.2,0,1,1324,1024,1024,1024,300.2,-84.9,45,3.777,3.772,3.769,3.761,0,0,0,,269.8631165,37.2,6,P-GPS,
983100,7/16/2020 17:19,41.98710432,21.48653009,37.2,,,269.8631165,10.5,1.86,3.12287,18,5,15.079,269.9631165,37.3,1.86,4.65896,1.1,-1.5,0,306.2,-5.2,3.2,0,1,1320,1024,1024,1024,300.2,-84.9,45,3.777,3.772,3.769,3.761,0,0,0,,269.8631165,37.2,6,P-GPS,
983200,7/16/2020 17:19,41.98710539,21.4865281,37.1,,,269.7631165,10.5,1.94,3.32294,18,5,15.079,269.9631165,37.3,1.94,4.65896,1.1,-1.6,0,306.2,-5.3,3,0,1,1321,1024,1024,1024,300.2,-84.9,45,3.777,3.772,3.769,3.761,0,0,0,,269.7631165,37.1,6,P-GPS,
983300,7/16/2020 17:19,41.98710638,21.48652608,37.1,,,269.7631165,10.5,2,3.52117,18,5,15.079,269.9631165,37.3,2,4.65896,1.2,-1.6,0,306.2,-5,2.9,0,1,1321,1024,1024,1024,300.2,-84.9,45,3.777,3.772,3.769,3.761,0,0,0,,269.7631165,37.1,6,P-GPS,
983400,7/16/2020 17:19,41.98710746,21.48652403,37.1,,,269.7631165,10.5,2,3.72654,18,5,15.079,269.9631165,37.3,2,4.65896,1.2,-1.6,0,306.2,-4.9,2.8,0,1,1324,1024,1024,1024,300.2,-84.9,45,3.777,3.772,3.769,3.761,0,0,0,,269.7631165,37.1,6,P-GPS,
983500,7/16/2020 17:19,41.98710857,21.48652205,37.1,,,269.7631165,10.5,2,3.92799,18,5,15.079,269.9631165,37.3,2,4.65896,1.2,-1.6,0,306.3,-4.8,3,0,1,1326,1024,1024,1024,300.2,-84.9,45,3.777,3.772,3.769,3.761,0,0,0,,269.7631165,37.1,6,P-GPS,
983600,7/16/2020 17:19,41.98710967,21.48651998,37.1,,,269.7631165,10.5,2,4.13683,18,5,15.073,269.9631165,37.3,2,4.65896,1.2,-1.6,0,306.2,-4.9,3,0,1,1328,1024,1024,1024,300.2,-84.9,45,3.775,3.77,3.768,3.76,0,0,0,,269.7631165,37.1,6,P-GPS,
983700,7/16/2020 17:19,41.98711085,21.48651794,37.1,,,269.7631165,10.5,2.08,4.34738,18,5,15.073,269.9631165,37.3,2.08,4.65896,1.2,-1.7,0,306.2,-5,3.1,0,1,1330,1024,1024,1024,300.2,-84.9,45,3.775,3.77,3.768,3.76,0,0,0,,269.7631165,37.1,6,P-GPS,
983800,7/16/2020 17:19,41.98711198,21.48651584,37.1,,,269.7631165,10.5,2.08,4.5599,18,5,15.073,269.9631165,37.3,2.08,4.65896,1.2,-1.7,0,306.2,-5,3.1,0,1,1330,1024,1024,1024,300.2,-84.9,45,3.775,3.77,3.768,3.76,0,0,0,,269.7631165,37.1,6,P-GPS,
983900,7/16/2020 17:19,41.98711311,21.48651374,37.1,,,269.7631165,10.5,2.08,4.77235,18,5,15.073,269.9631165,37.3,2.08,4.77235,1.2,-1.7,0,306.2,-5.1,3.1,0,1,1330,1024,1024,1024,300.2,-84.9,45,3.775,3.77,3.768,3.76,0,0,0,,269.7631165,37.1,6,P-GPS,
984000,7/16/2020 17:19,41.98711426,21.48651161,37.1,,,269.7631165,10.5,2.08,4.98819,18,5,15.073,269.9631165,37.3,2.08,4.98819,1.2,-1.7,0,306.1,-5.4,3,0,1,1330,1024,1024,1024,300.2,-84.9,45,3.775,3.77,3.768,3.76,0,0,0,,269.7631165,37.1,6,P-GPS,
984100,7/16/2020 17:19,41.98711551,21.48650957,37.1,,,269.7631165,10.5,2.08,5.20309,18,5,15.073,269.9631165,37.3,2.08,5.20309,1.2,-1.7,0,306.1,-5.4,2.8,0,1,1329,1024,1024,1024,300.2,-84.9,45,3.775,3.77,3.768,3.76,0,0,0,,269.7631165,37.1,6,P-GPS,
984200,7/16/2020 17:19,41.98711668,21.48650742,37.1,,,269.7631165,10.5,2.08,5.42231,18,5,15.073,269.9631165,37.3,2.08,5.42231,1.2,-1.7,0,306.1,-5.5,2.9,0,1,1334,1024,1024,1024,300.2,-84.9,45,3.775,3.77,3.768,3.76,0,0,0,,269.7631165,37.1,6,P-GPS,
984300,7/16/2020 17:19,41.98711787,21.48650528,37.1,,,269.7631165,10.5,2.14,5.64213,18,5,15.073,269.9631165,37.3,2.14,5.64213,1.3,-1.7,0,306.1,-5.3,2.9,0,1,1337,1024,1024,1024,300.2,-84.9,45,3.775,3.77,3.768,3.76,0,0,0,,269.7631165,37.1,6,P-GPS,
984400,7/16/2020 17:19,41.98711907,21.48650309,37.1,,,269.7631165,10.5,2.22,5.86536,18,5,15.073,269.9631165,37.3,2.22,5.86536,1.3,-1.8,0,306.1,-5.1,3,0,1,1333,1024,1024,1024,300.2,-84.9,45,3.775,3.77,3.768,3.76,0,0,0,,269.7631165,37.1,6,P-GPS,
984500,7/16/2020 17:19,41.98712023,21.486501,37.1,,,269.7631165,10.5,2.22,6.07965,18,5,15.073,269.9631165,37.3,2.22,6.07965,1.3,-1.8,0,306.1,-5.3,2.9,0,1,1334,1024,1024,1024,300.2,-84.9,45,3.775,3.77,3.768,3.76,0,0,0,,269.7631165,37.1,6,P-GPS,
984600,7/16/2020 17:19,41.98712144,21.48649881,37.1,,,269.7631165,10.5,2.22,6.30445,18,5,15.073,269.9631165,37.3,2.22,6.30445,1.3,-1.8,0,306.1,-5.5,2.8,0,1,1333,1024,1024,1024,300.2,-84.9,45,3.775,3.77,3.768,3.76,0,0,0,,269.7631165,37.1,6,P-GPS,
984700,7/16/2020 17:19,41.98712256,21.48649649,37.1,,,269.7631165,10.5,2.22,6.53319,18,5,15.074,269.9631165,37.3,2.22,6.53319,1.3,-1.8,0,306.1,-5.4,2.9,0,1,1336,1024,1024,1024,300.2,-84.9,45,3.775,3.771,3.768,3.76,0,0,0,,269.7631165,37.1,6,P-GPS,
984800,7/16/2020 17:19,41.98712378,21.48649425,37.1,,,269.7631165,10.5,2.22,6.76172,18,5,15.074,269.9631165,37.3,2.22,6.76172,1.3,-1.8,0,306.1,-5.4,2.9,0,1,1336,1024,1024,1024,300.2,-84.9,45,3.775,3.771,3.768,3.76,0,0,0,,269.7631165,37.1,6,P-GPS,
984900,7/16/2020 17:19,41.98712517,21.48649198,37.1,,,269.7631165,10.5,2.22,7.00217,18,5,15.074,269.9631165,37.3,2.22,7.00217,1.3,-1.8,0,306.1,-5.3,2.9,0,1,1338,1024,1024,1024,300.2,-84.9,45,3.775,3.771,3.768,3.76,0,0,0,,269.7631165,37.1,6,P-GPS,
985000,7/16/2020 17:19,41.98712642,21.48648971,37.1,,,269.7631165,10.5,2.22,7.23486,18,5,15.074,269.9631165,37.3,2.22,7.23486,1.3,-1.8,0,306.1,-5.3,2.9,0,1,1338,1024,1024,1024,300.2,-84.9,45,3.775,3.771,3.768,3.76,0,0,0,,269.7631165,37.1,6,P-GPS,
985100,7/16/2020 17:19,41.9871276,21.4864875,37.1,,,269.7631165,10.5,2.22,7.45875,18,5,15.074,269.9631165,37.3,2.22,7.45875,1.3,-1.8,0,306,-5.5,2.9,0,1,1340,1024,1024,1024,300.2,-84.9,45,3.775,3.771,3.768,3.76,0,0,0,,269.7631165,37.1,6,P-GPS,
985200,7/16/2020 17:19,41.98712886,21.48648523,37.1,,,269.7631165,10.5,2.28,7.69273,18,5,15.074,269.9631165,37.3,2.28,7.69273,1.4,-1.8,0,306,-5.7,2.9,0,1,1339,1024,1024,1024,300.2,-84.9,45,3.775,3.771,3.768,3.76,0,0,0,,269.7631165,37.1,6,P-GPS,
985300,7/16/2020 17:19,41.98713017,21.4864828,37.1,,,269.7631165,10.5,2.36,7.94004,18,5,15.074,269.9631165,37.3,2.36,7.94004,1.4,-1.9,0,306,-5.7,2.7,0,1,1339,1024,1024,1024,300.2,-84.9,45,3.775,3.771,3.768,3.76,0,0,0,,269.7631165,37.1,6,P-GPS,
985400,7/16/2020 17:19,41.98713145,21.48648048,37.1,,,269.7631165,10.5,2.36,8.17803,18,5,15.074,269.9631165,37.3,2.36,8.17803,1.4,-1.9,0,306.1,-5.6,2.7,0,1,1340,1024,1024,1024,300.2,-84.9,45,3.775,3.771,3.768,3.76,0,0,0,,269.7631165,37.1,6,P-GPS,
985500,7/16/2020 17:19,41.98713281,21.48647808,37.1,,,269.7631165,10.5,2.36,8.42685,18,5,15.074,269.9631165,37.3,2.36,8.42685,1.4,-1.9,0,306.1,-5.6,2.7,0,1,1340,1024,1024,1024,300.2,-84.9,45,3.775,3.771,3.768,3.76,0,0,0,,269.7631165,37.1,6,P-GPS,
985600,7/16/2020 17:19,41.98713412,21.48647573,37.1,,,269.7631165,10.5,2.36,8.66867,18,5,15.074,269.9631165,37.3,2.36,8.66867,1.4,-1.9,0,306.1,-5.7,2.7,0,1,1342,1024,1024,1024,300.2,-84.9,45,3.775,3.771,3.768,3.76,0,0,0,,269.7631165,37.1,6,P-GPS,
985700,7/16/2020 17:19,41.98713525,21.48647343,37.1,,,269.7631165,10.5,2.36,8.8967,18,5,15.074,269.9631165,37.3,2.36,8.8967,1.4,-1.9,0,306,-5.8,2.7,0,1,1342,1024,1024,1024,300.2,-84.9,45,3.775,3.771,3.768,3.76,0,0,0,,269.7631165,37.1,6,P-GPS,
985800,7/16/2020 17:19,41.98713655,21.48647106,37.1,,,269.7631165,10.5,2.36,9.13964,18,5,15.074,269.9631165,37.3,2.36,9.13964,1.4,-1.9,0,306,-5.9,2.6,0,1,1342,1024,1024,1024,300.2,-84.9,45,3.775,3.771,3.768,3.76,0,0,0,,269.7631165,37.1,6,P-GPS,
985900,7/16/2020 17:19,41.98713791,21.48646863,37.1,,,269.7631165,10.5,2.36,9.39027,18,5,15.074,269.9631165,37.3,2.36,9.39027,1.4,-1.9,0,306,-5.9,2.6,0,1,1341,1024,1024,1024,300.2,-84.9,45,3.775,3.771,3.768,3.76,0,0,0,,269.7631165,37.1,6,P-GPS,
986000,7/16/2020 17:19,41.98713924,21.48646623,37.1,,,269.7631165,10.5,2.36,9.63704,18,5,15.074,269.9631165,37.3,2.36,9.63704,1.4,-1.9,0,306,-5.8,2.6,0,1,1342,1024,1024,1024,300.2,-84.9,45,3.775,3.771,3.768,3.76,0,0,0,,269.7631165,37.1,6,P-GPS,
986100,7/16/2020 17:19,41.98714042,21.48646385,37.1,,,269.7631165,10.5,2.44,9.87354,18,5,15.074,269.9631165,37.3,2.44,9.87354,1.4,-2,0,306,-5.7,2.6,0,1,1341,1024,1024,1024,300.2,-84.9,45,3.775,3.771,3.768,3.76,0,0,0,,269.7631165,37.1,6,P-GPS,
986200,7/16/2020 17:19,41.98714175,21.48646142,37.1,,,269.7631165,10.5,2.44,10.1224,18,5,15.074,269.9631165,37.3,2.44,10.1224,1.4,-2,0,306,-5.6,2.7,0,1,1342,1024,1024,1024,300.2,-84.9,45,3.775,3.771,3.768,3.76,0,0,0,,269.7631165,37.1,6,P-GPS,
986300,7/16/2020 17:19,41.98714321,21.48645893,37.1,,,269.7631165,10.5,2.44,10.3834,18,5,15.074,269.9631165,37.3,2.44,10.3834,1.4,-2,0,306,-5.6,2.7,0,1,1342,1024,1024,1024,300.2,-84.9,45,3.775,3.771,3.768,3.76,0,0,0,,269.7631165,37.1,6,P-GPS,
986400,7/16/2020 17:19,41.98714456,21.48645647,37.1,,,269.7631165,10.5,2.44,10.6357,18,5,15.074,269.9631165,37.3,2.44,10.6357,1.4,-2,0,306.1,-5.5,2.7,0,1,1342,1024,1024,1024,300.2,-84.9,45,3.775,3.771,3.768,3.76,0,0,0,,269.7631165,37.1,6,P-GPS,
986500,7/16/2020 17:19,41.98714582,21.48645406,37.1,,,269.7631165,10.5,2.5,10.879,18,5,15.074,269.9631165,37.3,2.5,10.879,1.5,-2,-0.1,306.1,-5.5,2.8,0,1,1339,1024,1024,1024,300.2,-84.9,45,3.775,3.771,3.768,3.76,0,0,0,,269.7631165,37.1,6,P-GPS,
986600,7/16/2020 17:19,41.98714718,21.48645159,37.1,,,269.7631165,10.5,2.5,11.133,18,5,15.074,269.9631165,37.3,2.5,11.133,1.5,-2,0,306.1,-5.6,2.6,0,1,1338,1024,1024,1024,300.2,-84.9,45,3.775,3.771,3.768,3.76,0,0,0,,269.7631165,37.1,6,P-GPS,
986700,7/16/2020 17:19,41.98714858,21.48644922,37.1,,,269.7631165,10.5,2.5,11.3817,18,5,15.073,269.9631165,37.3,2.5,11.3817,1.5,-2,0,306.1,-5.4,2.8,0,1,1337,1024,1024,1024,300.2,-84.9,45,3.775,3.771,3.767,3.76,0,0,0,,269.7631165,37.1,6,P-GPS,
986800,7/16/2020 17:19,41.98714995,21.48644674,37.1,,,269.7631165,10.5,2.5,11.6372,18,5,15.073,269.9631165,37.3,2.5,11.6372,1.5,-2,0,306.1,-5.4,2.8,0,1,1338,1024,1024,1024,300.2,-84.9,45,3.775,3.771,3.767,3.76,0,0,0,,269.7631165,37.1,6,P-GPS,
986900,7/16/2020 17:19,41.98715131,21.48644411,37.1,,,269.7631165,10.5,2.5,11.9015,18,5,15.073,269.9631165,37.3,2.5,11.9015,1.5,-2,0,306.1,-5.4,2.8,0,1,1337,1024,1024,1024,300.2,-84.9,45,3.775,3.771,3.767,3.76,0,0,0,,269.7631165,37.1,6,P-GPS,
987000,7/16/2020 17:19,41.98715269,21.4864416,37.1,,,269.7631165,10.5,2.5,12.1591,18,5,15.073,269.9631165,37.3,2.5,12.1591,1.5,-2,0,306.1,-5.2,2.7,0,1,1338,1024,1024,1024,300.2,-84.9,45,3.775,3.771,3.767,3.76,0,0,0,,269.7631165,37.1,6,P-GPS,
987100,7/16/2020 17:19,41.98715402,21.48643905,37.1,,,269.7631165,10.5,2.58,12.4165,18,5,15.073,269.9631165,37.3,2.58,12.4165,1.5,-2.1,0,306.1,-5.3,2.8,0,1,1339,1024,1024,1024,300.2,-84.9,45,3.775,3.771,3.767,3.76,0,0,0,,269.7631165,37.1,6,P-GPS,
987200,7/16/2020 17:19,41.9871554,21.48643653,37.1,,,269.7631165,10.5,2.58,12.6755,18,5,15.073,269.9631165,37.3,2.58,12.6755,1.5,-2.1,0,306.1,-5.2,2.8,0,1,1339,1024,1024,1024,300.2,-84.9,45,3.775,3.771,3.767,3.76,0,0,0,,269.7631165,37.1,6,P-GPS,
987300,7/16/2020 17:19,41.98715688,21.48643402,37.1,,,269.7631165,10.5,2.58,12.9389,18,5,15.073,269.9631165,37.3,2.58,12.9389,1.5,-2.1,0,306.3,-5.2,2.6,0,1,1339,1024,1024,1024,300.2,-84.9,45,3.775,3.771,3.767,3.76,0,0,0,,269.7631165,37.1,6,P-GPS,
987400,7/16/2020 17:19,41.98715828,21.48643149,37.1,,,269.7631165,10.5,2.58,13.1998,18,5,15.073,269.9631165,37.3,2.58,13.1998,1.5,-2.1,0,306.2,-5.1,2.6,0,1,1341,1024,1024,1024,300.2,-84.9,45,3.775,3.771,3.767,3.76,0,0,0,,269.7631165,37.1,6,P-GPS,
987500,7/16/2020 17:19,41.98715973,21.48642884,37.1,,,269.7631165,10.5,2.58,13.4709,18,5,15.073,269.9631165,37.3,2.58,13.4709,1.5,-2.1,0,306.1,-5.1,2.6,0,1,1349,1024,1024,1024,300.2,-84.9,45,3.775,3.771,3.767,3.76,0,0,0,,269.7631165,37.1,6,P-GPS,
987600,7/16/2020 17:19,41.98716114,21.48642628,37.1,,,269.7631165,10.5,2.58,13.7345,18,5,15.073,269.9631165,37.3,2.58,13.7345,1.5,-2.1,0,306.1,-5.2,2.8,0,1,1349,1024,1024,1024,300.2,-84.9,45,3.775,3.771,3.767,3.76,0,0,0,,269.7631165,37.1,6,P-GPS,
987700,7/16/2020 17:19,41.98716255,21.48642351,37.1,,,269.7631165,10.5,2.58,14.0118,18,5,15.071,269.9631165,37.3,2.58,14.0118,1.5,-2.1,0,306,-5.3,2.7,0,1,1349,1024,1024,1024,300.2,-84.9,45,3.774,3.77,3.767,3.76,0,0,0,,269.7631165,37.1,6,P-GPS,
987800,7/16/2020 17:19,41.98716398,21.4864209,37.1,,,269.7631165,10.5,2.58,14.2793,18,5,15.071,269.9631165,37.3,2.58,14.2793,1.5,-2.1,0,306,-5.2,2.7,0,1,1349,1024,1024,1024,300.2,-84.9,45,3.774,3.77,3.767,3.76,0,0,0,,269.7631165,37.1,6,P-GPS,
987900,7/16/2020 17:19,41.98716539,21.4864182,37.1,,,269.7631165,10.5,2.58,14.5523,18,5,15.071,269.9631165,37.3,2.58,14.5523,1.5,-2.1,0,306.1,-4.9,2.7,0,1,1349,1024,1024,1024,300.2,-84.9,45,3.774,3.77,3.767,3.76,0,0,0,,269.7631165,37.1,6,P-GPS,
988000,7/16/2020 17:19,41.98716684,21.48641556,37.1,,,269.7631165,10.5,2.72,14.8235,18,5,15.071,269.9631165,37.3,2.72,14.8235,1.6,-2.2,0,306.1,-4.8,2.7,0,1,1349,1024,1024,1024,300.2,-84.9,45,3.774,3.77,3.767,3.76,0,0,0,,269.7631165,37.1,6,P-GPS,
988100,7/16/2020 17:19,41.98716834,21.48641272,37.2,,,269.8631165,10.5,2.72,15.1117,18,5,15.071,269.9631165,37.3,2.72,15.1117,1.6,-2.2,0,306.1,-4.6,2.9,0,1,1348,1024,1024,1024,300.2,-84.9,45,3.774,3.77,3.767,3.76,0,0,0,,269.8631165,37.2,6,P-GPS,
988200,7/16/2020 17:19,41.98716981,21.48641004,37.2,,,269.8631165,10.5,2.72,15.3863,18,5,15.071,269.9631165,37.3,2.72,15.3863,1.6,-2.2,0,306.1,-4.7,2.9,0,1,1349,1024,1024,1024,300.2,-84.9,45,3.774,3.77,3.767,3.76,0,0,0,,269.8631165,37.2,6,P-GPS,
988300,7/16/2020 17:19,41.98717135,21.48640756,37.2,,,269.8631165,10.5,2.72,15.6523,18,5,15.071,269.9631165,37.3,2.72,15.6523,1.6,-2.2,0,306.1,-4.8,2.8,0,1,1349,1024,1024,1024,300.2,-84.9,45,3.774,3.77,3.767,3.76,0,0,0,,269.8631165,37.2,6,P-GPS,
988400,7/16/2020 17:19,41.98717283,21.48640489,37.2,,,269.8631165,10.5,2.72,15.9273,18,5,15.071,269.9631165,37.3,2.72,15.9273,1.6,-2.2,0,306.1,-4.9,2.7,0,1,1349,1024,1024,1024,300.2,-84.9,45,3.774,3.77,3.767,3.76,0,0,0,,269.8631165,37.2,6,P-GPS,
988500,7/16/2020 17:19,41.98717429,21.48640209,37.2,,,269.8631165,10.5,2.72,16.2094,18,5,15.071,269.9631165,37.3,2.72,16.2094,1.6,-2.2,0,306.1,-4.8,2.7,0,1,1349,1024,1024,1024,300.2,-84.9,44,3.774,3.77,3.767,3.76,0,0,0,,269.8631165,37.2,6,P-GPS,
988600,7/16/2020 17:19,41.98717579,21.48639941,37.2,,,269.8631165,10.5,2.72,16.4868,18,5,15.071,269.9631165,37.3,2.72,16.4868,1.6,-2.2,0,306.1,-4.7,2.6,0,1,1349,1024,1024,1024,300.2,-84.9,44,3.774,3.77,3.767,3.76,0,0,0,,269.8631165,37.2,6,P-GPS,
988700,7/16/2020 17:19,41.98717737,21.48639679,37.2,,,269.8631165,10.5,2.72,16.7647,18,5,15.07,269.9631165,37.3,2.72,16.7647,1.6,-2.2,0,306.1,-4.7,2.3,0,1,1346,1024,1024,1024,300.2,-84.9,44,3.773,3.771,3.767,3.759,0,0,0,,269.8631165,37.2,6,P-GPS,
988800,7/16/2020 17:19,41.98717889,21.4863941,37.2,,,269.8631165,10.5,2.72,17.0436,18,5,15.07,269.9631165,37.3,2.72,17.0436,1.6,-2.2,0,306.1,-4.7,2.2,0,1,1345,1024,1024,1024,300.2,-84.9,44,3.773,3.771,3.767,3.759,0,0,0,,269.8631165,37.2,6,P-GPS,
988900,7/16/2020 17:19,41.98718042,21.48639119,37.3,,,269.9631165,10.5,2.72,17.3381,18,5,15.07,269.9631165,37.3,2.72,17.3381,1.6,-2.2,0,306.1,-4.7,2.2,0,1,1345,1024,1024,1024,300.2,-84.9,44,3.773,3.771,3.767,3.759,0,0,0,,269.9631165,37.3,6,P-GPS,
989000,7/16/2020 17:19,41.98718194,21.48638848,37.2,,,269.8631165,10.5,2.72,17.619,18,5,15.07,269.9631165,37.3,2.72,17.619,1.6,-2.2,0,306.1,-4.8,2.3,0,1,1342,1024,1024,1024,300.2,-84.9,44,3.773,3.771,3.767,3.759,0,0,0,,269.8631165,37.2,6,P-GPS,
989100,7/16/2020 17:19,41.98718356,21.48638591,37.2,,,269.8631165,10.5,2.72,17.8955,18,5,15.07,269.9631165,37.3,2.72,17.8955,1.6,-2.2,0,306.1,-4.8,2.4,0,1,1342,1024,1024,1024,300.2,-84.9,44,3.773,3.771,3.767,3.759,0,0,0,,269.8631165,37.2,6,P-GPS,
989200,7/16/2020 17:19,41.98718509,21.4863832,37.2,,,269.8631165,10.5,2.72,18.1763,18,5,15.07,269.9631165,37.3,2.72,18.1763,1.6,-2.2,0,306.1,-4.9,2.3,0,1,1344,1024,1024,1024,300.2,-84.9,44,3.773,3.771,3.767,3.759,0,0,0,,269.8631165,37.2,6,P-GPS,
989300,7/16/2020 17:19,41.98718668,21.48638035,37.2,,,269.8631165,10.5,2.72,18.4709,18,5,15.07,269.9631165,37.3,2.72,18.4709,1.6,-2.2,0,306.1,-4.9,2.2,0,1,1349,1024,1024,1024,300.2,-84.9,44,3.773,3.771,3.767,3.759,0,0,0,,269.8631165,37.2,6,P-GPS,
989400,7/16/2020 17:19,41.98718822,21.48637762,37.2,,,269.8631165,10.5,2.72,18.7541,18,5,15.07,269.9631165,37.3,2.72,18.7541,1.6,-2.2,0,306.1,-4.9,2.2,0,1,1349,1024,1024,1024,300.2,-84.9,44,3.773,3.771,3.767,3.759,0,0,0,,269.8631165,37.2,6,P-GPS,
989500,7/16/2020 17:19,41.98718967,21.48637494,37.2,,,269.8631165,10.5,2.72,19.028,18,5,15.07,269.9631165,37.3,2.72,19.028,1.6,-2.2,0,306.1,-4.9,2.3,0,1,1350,1024,1024,1024,300.2,-84.9,44,3.773,3.771,3.767,3.759,0,0,0,,269.8631165,37.2,6,P-GPS,
989600,7/16/2020 17:19,41.98719121,21.48637219,37.2,,,269.8631165,10.5,2.72,19.3121,18,5,15.07,269.9631165,37.3,2.72,19.3121,1.6,-2.2,0,306.1,-4.9,2.4,0,1,1349,1024,1024,1024,300.2,-84.9,44,3.773,3.771,3.767,3.759,0,0,0,,269.8631165,37.2,6,P-GPS,
989700,7/16/2020 17:19,41.9871928,21.48636934,37.2,,,269.8631165,10.5,2.72,19.6066,18,5,15.067,269.9631165,37.3,2.72,19.6066,1.6,-2.2,0,306.1,-4.9,2.4,0,1,1349,1024,1024,1024,300.2,-84.9,44,3.773,3.77,3.766,3.758,0,0,0,,269.8631165,37.2,6,P-GPS,
989800,7/16/2020 17:19,41.98719436,21.48636658,37.2,,,269.8631165,10.5,2.72,19.8932,18,5,15.067,269.9631165,37.3,2.72,19.8932,1.6,-2.2,0,306.1,-4.9,2.4,0,1,1349,1024,1024,1024,300.2,-84.9,44,3.773,3.77,3.766,3.758,0,0,0,,269.8631165,37.2,6,P-GPS,
989900,7/16/2020 17:19,41.98719595,21.48636394,37.2,,,269.8631165,10.5,2.72,20.1728,18,5,15.067,269.9631165,37.3,2.72,20.1728,1.6,-2.2,0,306.1,-4.9,2.3,0,1,1350,1024,1024,1024,300.2,-84.9,44,3.773,3.77,3.766,3.758,0,0,0,,269.8631165,37.2,6,P-GPS,
990000,7/16/2020 17:19,41.98719752,21.48636118,37.2,,,269.8631165,10.5,2.72,20.4598,18,5,15.067,269.9631165,37.3,2.72,20.4598,1.6,-2.2,0,306.1,-4.9,2.3,0,1,1350,1024,1024,1024,300.2,-84.9,44,3.773,3.77,3.766,3.758,0,0,0,,269.8631165,37.2,6,P-GPS,
990100,7/16/2020 17:19,41.98719908,21.48635842,37.2,,,269.8631165,10.5,2.72,20.7463,18,5,15.067,269.9631165,37.3,2.72,20.7463,1.6,-2.2,0,306.1,-4.9,2.3,0,1,1350,1024,1024,1024,300.2,-84.9,44,3.773,3.77,3.766,3.758,0,0,0,,269.8631165,37.2,6,P-GPS,
990200,7/16/2020 17:19,41.98720065,21.48635564,37.2,,,269.8631165,10.5,2.72,21.0343,18,5,15.067,269.9631165,37.3,2.72,21.0343,1.6,-2.2,0,306.2,-5,2.4,0,1,1348,1024,1024,1024,300.2,-84.9,44,3.773,3.77,3.766,3.758,0,0,0,,269.8631165,37.2,6,P-GPS,
990300,7/16/2020 17:19,41.98720202,21.48635289,37.2,,,269.8631165,10.5,2.72,21.309,18,5,15.067,269.9631165,37.3,2.72,21.309,1.6,-2.2,0,306.1,-5.1,2.4,0,1,1348,1024,1024,1024,300.2,-84.9,44,3.773,3.77,3.766,3.758,0,0,0,,269.8631165,37.2,6,P-GPS,
990400,7/16/2020 17:19,41.98720358,21.4863501,37.2,,,269.8631165,10.5,2.72,21.5967,18,5,15.067,269.9631165,37.3,2.72,21.5967,1.6,-2.2,0,306.1,-5,2.4,0,1,1348,1024,1024,1024,300.2,-84.9,44,3.773,3.77,3.766,3.758,0,0,0,,269.8631165,37.2,6,P-GPS,
990500,7/16/2020 17:19,41.98720498,21.48634737,37.2,,,269.8631165,10.5,2.72,21.8716,18,5,15.067,269.9631165,37.3,2.72,21.8716,1.6,-2.2,0,306.1,-5,2.4,0,1,1349,1024,1024,1024,300.2,-84.9,44,3.773,3.77,3.766,3.758,0,0,0,,269.8631165,37.2,6,P-GPS,
990600,7/16/2020 17:19,41.98720653,21.48634458,37.2,,,269.8631165,10.5,2.72,22.1589,18,5,15.067,269.9631165,37.3,2.72,22.1589,1.6,-2.3,0,306.1,-5,2.5,0,1,1347,1024,1024,1024,300.2,-84.9,44,3.773,3.77,3.766,3.758,0,0,0,,269.8631165,37.2,6,P-GPS,
990700,7/16/2020 17:19,41.98720806,21.4863415,37.2,,,269.8631165,10.5,2.8,22.4653,18,5,15.065,269.9631165,37.3,2.8,22.4653,1.6,-2.3,0,306.1,-5,2.5,0,1,1349,1024,1024,1024,300.2,-84.9,44,3.772,3.769,3.766,3.758,0,0,0,,269.8631165,37.2,6,P-GPS,
990800,7/16/2020 17:19,41.9872096,21.48633866,37.2,,,269.8631165,10.5,2.8,22.7556,18,5,15.065,269.9631165,37.3,2.8,22.7556,1.6,-2.3,0,306.1,-5,2.5,0,1,1348,1024,1024,1024,300.2,-84.9,44,3.772,3.769,3.766,3.758,0,0,0,,269.8631165,37.2,6,P-GPS,
990900,7/16/2020 17:19,41.9872109,21.48633619,37.2,,,269.8631165,10.5,2.8,23.0054,18,5,15.065,269.9631165,37.3,2.8,23.0054,1.6,-2.3,0,306.1,-4.8,2.7,0,1,1349,1024,1024,1024,300.2,-84.9,44,3.772,3.769,3.766,3.758,0,0,0,,269.8631165,37.2,6,P-GPS,
991000,7/16/2020 17:19,41.98721241,21.48633337,37.2,,,269.8631165,10.5,2.8,23.2927,18,5,15.065,269.9631165,37.3,2.8,23.2927,1.6,-2.3,0,306.2,-4.7,3,0,1,1348,1024,1024,1024,300.2,-84.9,44,3.772,3.769,3.766,3.758,0,0,0,,269.8631165,37.2,6,P-GPS,
991100,7/16/2020 17:19,41.98721386,21.48633068,37.2,,,269.8631165,10.5,2.8,23.5672,18,5,15.065,269.9631165,37.3,2.8,23.5672,1.6,-2.3,0,306.2,-4.6,3.1,0,1,1349,1024,1024,1024,300.2,-84.9,44,3.772,3.769,3.766,3.758,0,0,0,,269.8631165,37.2,6,P-GPS,
991200,7/16/2020 17:19,41.98721536,21.48632789,37.2,,,269.8631165,10.5,2.8,23.8524,18,5,15.065,269.9631165,37.3,2.8,23.8524,1.6,-2.3,0,306.1,-4.6,3.1,0,1,1349,1024,1024,1024,300.2,-84.9,44,3.772,3.769,3.766,3.758,0,0,0,,269.8631165,37.2,6,P-GPS,
991300,7/16/2020 17:19,41.98721683,21.48632497,37.2,,,269.8631165,10.5,2.8,24.1441,18,5,15.065,269.9631165,37.3,2.8,24.1441,1.6,-2.3,0,306.1,-4.8,3,0,1,1349,1024,1024,1024,300.2,-84.9,44,3.772,3.769,3.766,3.758,0,0,0,,269.8631165,37.2,6,P-GPS,
991400,7/16/2020 17:19,41.98721833,21.48632218,37.2,,,269.8631165,10.5,2.8,24.4282,18,5,15.065,269.9631165,37.3,2.8,24.4282,1.6,-2.3,0,306.1,-5,2.9,0,1,1349,1024,1024,1024,300.2,-84.9,44,3.772,3.769,3.766,3.758,0,0,0,,269.8631165,37.2,6,P-GPS,
991500,7/16/2020 17:19,41.98721983,21.48631945,37.2,,,269.8631165,10.5,2.8,24.7089,18,5,15.065,269.9631165,37.3,2.8,24.7089,1.6,-2.3,0,306.1,-5.2,2.8,0,1,1354,1024,1024,1024,300.2,-84.9,44,3.772,3.769,3.766,3.758,0,0,0,,269.8631165,37.2,6,P-GPS,
991600,7/16/2020 17:19,41.98722133,21.48631667,37.2,,,269.8631165,10.5,2.8,24.9925,18,5,15.065,269.9631165,37.3,2.8,24.9925,1.6,-2.3,0,306.1,-5.3,2.8,0,1,1356,1024,1024,1024,300.2,-84.9,44,3.772,3.769,3.766,3.758,0,0,0,,269.8631165,37.2,6,P-GPS,
991700,7/16/2020 17:19,41.98722282,21.48631371,37.2,,,269.8631165,10.5,2.8,25.2886,18,5,15.065,269.9631165,37.3,2.8,25.2886,1.6,-2.3,0,306.1,-5.2,2.8,0,1,1355,1024,1024,1024,300.2,-84.9,44,3.772,3.769,3.766,3.758,0,0,0,,269.8631165,37.2,6,P-GPS,
991800,7/16/2020 17:19,41.98722432,21.4863109,37.2,,,269.8631165,10.5,2.8,25.574,18,5,15.061,269.9631165,37.3,2.8,25.574,1.6,-2.3,0,306.1,-5.3,2.8,0,1,1356,1024,1024,1024,300.2,-84.9,44,3.771,3.768,3.765,3.757,0,0,0,,269.8631165,37.2,6,P-GPS,
991900,7/16/2020 17:19,41.98722566,21.48630806,37.2,,,269.8631165,10.5,2.8,25.852,18,5,15.061,269.9631165,37.3,2.8,25.852,1.6,-2.3,0,306.1,-5.3,3,0,1,1355,1024,1024,1024,300.2,-84.9,44,3.771,3.768,3.765,3.757,0,0,0,,269.8631165,37.2,6,P-GPS,
992000,7/16/2020 17:19,41.98722714,21.48630523,37.2,,,269.8631165,10.5,2.8,26.1377,18,5,15.061,269.9631165,37.3,2.8,26.1377,1.6,-2.3,0,306.1,-5.3,3.1,0,1,1354,1024,1024,1024,300.2,-84.9,44,3.771,3.768,3.765,3.757,0,0,0,,269.8631165,37.2,6,P-GPS,
992100,7/16/2020 17:19,41.98722867,21.48630241,37.2,,,269.8631165,10.5,2.8,26.4265,18,5,15.061,269.9631165,37.3,2.8,26.4265,1.6,-2.3,0,306.1,-5.3,3.2,0,1,1354,1024,1024,1024,300.2,-84.9,44,3.771,3.768,3.765,3.757,0,0,0,,269.8631165,37.2,6,P-GPS,
992200,7/16/2020 17:19,41.98723016,21.48629957,37.2,,,269.8631165,10.5,2.8,26.7138,18,5,15.061,269.9631165,37.3,2.8,26.7138,1.6,-2.3,0,306.1,-5.3,3.1,0,1,1354,1024,1024,1024,300.2,-84.9,44,3.771,3.768,3.765,3.757,0,0,0,,269.8631165,37.2,6,P-GPS,
992300,7/16/2020 17:19,41.98723156,21.48629678,37.2,,,269.8631165,10.5,2.8,26.9919,18,5,15.061,269.9631165,37.3,2.8,26.9919,1.6,-2.3,0,306.1,-5.2,3.1,0,1,1355,1024,1024,1024,300.2,-84.9,44,3.771,3.768,3.765,3.757,0,0,0,,269.8631165,37.2,6,P-GPS,
992400,7/16/2020 17:19,41.98723304,21.48629393,37.2,,,269.8631165,10.5,2.8,27.2794,18,5,15.061,269.9631165,37.3,2.8,27.2794,1.6,-2.3,0,306.1,-5,3.1,0,1,1356,1024,1024,1024,300.2,-84.9,44,3.771,3.768,3.765,3.757,0,0,0,,269.8631165,37.2,6,P-GPS,
992500,7/16/2020 17:19,41.9872346,21.48629102,37.1,,,269.7631165,10.5,2.8,27.5761,18,5,15.061,269.9631165,37.3,2.8,27.5761,1.6,-2.3,0,306.1,-5,3.1,0,1,1356,1024,1024,1024,300.2,-84.9,44,3.771,3.768,3.765,3.757,0,0,0,,269.7631165,37.1,6,P-GPS,
992600,7/16/2020 17:19,41.9872361,21.48628815,37.1,,,269.7631165,10.5,2.86,27.8654,18,5,15.061,269.9631165,37.3,2.86,27.8654,1.7,-2.3,0,306.1,-5.1,3.1,0,1,1356,1024,1024,1024,300.2,-84.9,44,3.771,3.768,3.765,3.757,0,0,0,,269.7631165,37.1,6,P-GPS,
992700,7/16/2020 17:19,41.98723763,21.48628529,37.1,,,269.7631165,10.5,2.86,28.1573,18,5,15.061,269.9631165,37.3,2.86,28.1573,1.7,-2.3,0,306.1,-5.1,3,0,1,1356,1024,1024,1024,300.2,-84.9,44,3.771,3.768,3.765,3.757,0,0,0,,269.7631165,37.1,6,P-GPS,
992800,7/16/2020 17:19,41.98723913,21.48628242,37.1,,,269.7631165,10.5,2.86,28.4473,18,5,15.061,269.9631165,37.3,2.86,28.4473,1.7,-2.3,0,306,-5.1,3,0,1,1355,1024,1024,1024,300.2,-84.9,44,3.772,3.768,3.765,3.756,0,0,0,,269.7631165,37.1,6,P-GPS,
992900,7/16/2020 17:19,41.98724065,21.48627958,37.1,,,269.7631165,10.5,2.86,28.7363,18,5,15.061,269.9631165,37.3,2.86,28.7363,1.7,-2.3,0,306,-5.1,3,0,1,1355,1024,1024,1024,300.2,-84.9,44,3.772,3.768,3.765,3.756,0,0,0,,269.7631165,37.1,6,P-GPS,
993000,7/16/2020 17:19,41.98724215,21.48627671,37.1,,,269.7631165,10.5,2.86,29.0267,18,5,15.061,269.9631165,37.3,2.86,29.0267,1.7,-2.3,0,306,-5.1,3,0,1,1355,1024,1024,1024,300.2,-84.9,44,3.772,3.768,3.765,3.756,0,0,0,,269.7631165,37.1,6,P-GPS,
993100,7/16/2020 17:19,41.98724355,21.48627394,37.1,,,269.7631165,10.5,2.86,29.3029,18,5,15.061,269.9631165,37.3,2.86,29.3029,1.7,-2.3,0,306,-5.1,3.1,0,1,1356,1024,1024,1024,300.2,-84.9,44,3.772,3.768,3.765,3.756,0,0,0,,269.7631165,37.1,6,P-GPS,
993200,7/16/2020 17:19,41.98724505,21.48627109,37.1,,,269.7631165,10.5,2.86,29.5917,18,5,15.061,269.9631165,37.3,2.86,29.5917,1.7,-2.3,0,306,-5.1,3,0,1,1356,1024,1024,1024,300.2,-84.9,44,3.772,3.768,3.765,3.756,0,0,0,,269.7631165,37.1,6,P-GPS,
993300,7/16/2020 17:19,41.98724683,21.48626791,37.1,,,269.7631165,10.5,2.86,29.9208,18,5,15.061,269.9631165,37.3,2.86,29.9208,1.7,-2.3,0,306,-5.1,2.8,0,1,1356,1024,1024,1024,300.2,-84.9,44,3.772,3.768,3.765,3.756,0,0,0,,269.7631165,37.1,6,P-GPS,
993400,7/16/2020 17:19,41.98724836,21.48626502,37.1,,,269.7631165,10.5,2.86,30.2143,18,5,15.061,269.9631165,37.3,2.86,30.2143,1.7,-2.3,0,306,-5.1,2.8,0,1,1355,1024,1024,1024,300.2,-84.9,44,3.772,3.768,3.765,3.756,0,0,0,,269.7631165,37.1,6,P-GPS,
993500,7/16/2020 17:19,41.98724984,21.48626223,37.1,,,269.7631165,10.5,2.86,30.4973,18,5,15.061,269.9631165,37.3,2.86,30.4973,1.7,-2.3,0,306,-5.1,2.8,0,1,1355,1024,1024,1024,300.2,-84.9,44,3.772,3.768,3.765,3.756,0,0,0,,269.7631165,37.1,6,P-GPS,
993600,7/16/2020 17:19,41.98725137,21.48625934,37.1,,,269.7631165,10.5,2.86,30.7906,18,5,15.061,269.9631165,37.3,2.86,30.7906,1.7,-2.3,0,306.1,-5.1,2.8,0,1,1355,1024,1024,1024,300.2,-84.9,44,3.772,3.768,3.765,3.756,0,0,0,,269.7631165,37.1,6,P-GPS,
993700,7/16/2020 17:19,41.98725297,21.48625638,37.2,,,269.8631165,10.5,2.86,31.0935,18,5,15.061,269.9631165,37.3,2.86,31.0935,1.7,-2.3,0,306.1,-5.1,2.9,0,1,1356,1024,1024,1024,300.2,-84.9,44,3.772,3.768,3.765,3.756,0,0,0,,269.8631165,37.2,6,P-GPS,
993800,7/16/2020 17:19,41.98725451,21.48625347,37.2,,,269.8631165,10.5,2.86,31.3883,18,5,15.056,269.9631165,37.3,2.86,31.3883,1.7,-2.3,0,306.1,-4.9,2.8,0,1,1355,1024,1024,1024,300.2,-84.9,44,3.77,3.767,3.763,3.756,0,0,0,,269.8631165,37.2,6,P-GPS,
993900,7/16/2020 17:19,41.98725608,21.48625053,37.1,,,269.7631165,10.5,2.86,31.6874,18,5,15.056,269.9631165,37.3,2.86,31.6874,1.7,-2.3,0,306.2,-4.7,3,0,1,1355,1024,1024,1024,300.2,-84.9,44,3.77,3.767,3.763,3.756,0,0,0,,269.7631165,37.1,6,P-GPS,
994000,7/16/2020 17:19,41.98725762,21.48624763,37.2,,,269.8631165,10.5,2.86,31.982,18,5,15.056,269.9631165,37.3,2.86,31.982,1.7,-2.3,0,306.1,-5,2.9,0,1,1355,1024,1024,1024,300.2,-84.9,44,3.77,3.767,3.763,3.756,0,0,0,,269.8631165,37.2,6,P-GPS,
994100,7/16/2020 17:19,41.98725904,21.48624475,37.2,,,269.8631165,10.5,2.86,32.2675,18,5,15.056,269.9631165,37.3,2.86,32.2675,1.7,-2.3,0,306.1,-5.2,2.8,0,1,1356,1024,1024,1024,300.2,-84.9,44,3.77,3.767,3.763,3.756,0,0,0,,269.8631165,37.2,6,P-GPS,
994200,7/16/2020 17:19,41.98726057,21.48624185,37.2,,,269.8631165,10.5,2.86,32.5614,18,5,15.056,269.9631165,37.3,2.86,32.5614,1.7,-2.3,0,306.1,-5.2,2.8,0,1,1356,1024,1024,1024,300.2,-84.9,44,3.77,3.767,3.763,3.756,0,0,0,,269.8631165,37.2,6,P-GPS,
994300,7/16/2020 17:19,41.98726201,21.48623896,37.1,,,269.7631165,10.5,2.86,32.8491,18,5,15.056,269.9631165,37.3,2.86,32.8491,1.7,-2.3,0,306.1,-5.2,3,0,1,1355,1024,1024,1024,300.2,-84.9,44,3.77,3.767,3.763,3.756,0,0,0,,269.7631165,37.1,6,P-GPS,
994400,7/16/2020 17:19,41.98726353,21.48623605,37.2,,,269.8631165,10.5,2.86,33.1433,18,5,15.056,269.9631165,37.3,2.86,33.1433,1.7,-2.3,0,306.1,-5.2,3.1,0,1,1355,1024,1024,1024,300.2,-84.9,44,3.77,3.767,3.763,3.756,0,0,0,,269.8631165,37.2,6,P-GPS,
994500,7/16/2020 17:19,41.98726514,21.48623312,37.2,,,269.8631165,10.5,2.86,33.444,18,5,15.056,269.9631165,37.3,2.86,33.444,1.7,-2.3,0,306.1,-5.2,3,0,1,1354,1024,1024,1024,300.2,-84.9,44,3.77,3.767,3.763,3.756,0,0,0,,269.8631165,37.2,6,P-GPS,
994600,7/16/2020 17:19,41.98726667,21.48623021,37.1,,,269.7631165,10.5,2.86,33.7391,18,5,15.056,269.9631165,37.3,2.86,33.7391,1.7,-2.3,0,306.1,-5.2,3,0,1,1355,1024,1024,1024,300.2,-84.9,44,3.77,3.767,3.763,3.756,0,0,0,,269.7631165,37.1,6,P-GPS,
994700,7/16/2020 17:19,41.98726813,21.48622717,37.1,,,269.7631165,10.5,2.94,34.0376,18,5,15.056,269.9631165,37.3,2.94,34.0376,1.7,-2.4,0,306.1,-5.2,2.8,0,1,1356,1024,1024,1024,300.2,-84.9,44,3.77,3.767,3.763,3.756,0,0,0,,269.7631165,37.1,6,P-GPS,
994800,7/16/2020 17:19,41.98726965,21.48622424,37.1,,,269.7631165,10.5,2.94,34.3334,18,5,15.059,269.9631165,37.3,2.94,34.3334,1.7,-2.4,0,306.1,-5.1,2.8,0,1,1356,1024,1024,1024,300.2,-84.9,44,3.772,3.768,3.763,3.756,0,0,0,,269.7631165,37.1,6,P-GPS,
994900,7/16/2020 17:19,41.98727125,21.48622152,37.1,,,269.7631165,10.5,2.94,34.6193,18,5,15.059,269.9631165,37.3,2.94,34.6193,1.7,-2.4,0,306.1,-5,2.9,0,1,1357,1024,1024,1024,300.2,-84.9,44,3.772,3.768,3.763,3.756,0,0,0,,269.7631165,37.1,6,P-GPS,
995000,7/16/2020 17:19,41.98727278,21.4862186,37.1,,,269.7631165,10.5,2.94,34.9146,18,5,15.059,269.9631165,37.3,2.94,34.9146,1.7,-2.4,0,306.1,-5.1,3,0,1,1359,1024,1024,1024,300.2,-84.9,44,3.772,3.768,3.763,3.756,0,0,0,,269.7631165,37.1,6,P-GPS,
995100,7/16/2020 17:19,41.98727421,21.48621571,37.1,,,269.7631165,10.5,2.94,35.2016,18,5,15.059,269.9631165,37.3,2.94,35.2016,1.7,-2.4,0,306.1,-5.2,3,0,1,1359,1024,1024,1024,300.2,-84.9,44,3.772,3.768,3.763,3.756,0,0,0,,269.7631165,37.1,6,P-GPS,
995200,7/16/2020 17:19,41.98727573,21.48621279,37.1,,,269.7631165,10.5,2.94,35.4965,18,5,15.059,269.9631165,37.3,2.94,35.4965,1.7,-2.4,0,306.1,-5.2,3.1,0,1,1361,1024,1024,1024,300.2,-84.9,44,3.772,3.768,3.763,3.756,0,0,0,,269.7631165,37.1,6,P-GPS,
995300,7/16/2020 17:19,41.98727734,21.48620991,37.2,,,269.8631165,10.5,2.94,35.7942,18,5,15.059,269.9631165,37.3,2.94,35.7942,1.7,-2.4,0,306.1,-5.3,3.1,0,1,1363,1024,1024,1024,300.2,-84.9,44,3.772,3.768,3.763,3.756,0,0,0,,269.8631165,37.2,6,P-GPS,
995400,7/16/2020 17:19,41.98727888,21.48620699,37.1,,,269.7631165,10.5,2.94,36.09,18,5,15.059,269.9631165,37.3,2.94,36.09,1.7,-2.4,0,306.1,-5.3,3,0,1,1362,1024,1024,1024,300.2,-84.9,44,3.772,3.768,3.763,3.756,0,0,0,,269.7631165,37.1,6,P-GPS,
995500,7/16/2020 17:19,41.98728034,21.48620397,37.1,,,269.7631165,10.5,2.94,36.3878,18,5,15.059,269.9631165,37.3,2.94,36.3878,1.7,-2.4,0,306.2,-5.3,2.9,0,1,1359,1024,1024,1024,300.2,-84.9,44,3.772,3.768,3.763,3.756,0,0,0,,269.7631165,37.1,6,P-GPS,
995600,7/16/2020 17:19,41.98728188,21.48620103,37.1,,,269.7631165,10.5,2.94,36.6849,18,5,15.059,269.9631165,37.3,2.94,36.6849,1.7,-2.4,0,306.2,-5.3,3,0,1,1359,1024,1024,1024,300.2,-84.9,44,3.772,3.768,3.763,3.756,0,0,0,,269.7631165,37.1,6,P-GPS,
995700,7/16/2020 17:19,41.98728348,21.48619802,37.1,,,269.7631165,10.5,2.94,36.9911,18,5,15.059,269.9631165,37.3,2.94,36.9911,1.7,-2.4,0,306.1,-5.4,2.9,0,1,1360,1024,1024,1024,300.2,-84.9,44,3.772,3.768,3.763,3.756,0,0,0,,269.7631165,37.1,6,P-GPS,
995800,7/16/2020 17:19,41.98728503,21.48619506,37.1,,,269.7631165,10.5,2.94,37.29,18,5,15.057,269.9631165,37.3,2.94,37.29,1.7,-2.4,0,306.1,-5.4,2.8,0,1,1360,1024,1024,1024,300.2,-84.9,44,3.77,3.767,3.764,3.756,0,0,0,,269.7631165,37.1,6,P-GPS,
995900,7/16/2020 17:19,41.98728673,21.486192,37.2,,,269.8631165,10.5,2.94,37.6059,18,5,15.057,269.9631165,37.3,2.94,37.6059,1.7,-2.4,0,306.2,-5.3,3,0,1,1360,1024,1024,1024,300.2,-84.9,44,3.77,3.767,3.764,3.756,0,0,0,,269.8631165,37.2,6,P-GPS,
996000,7/16/2020 17:19,41.9872883,21.48618902,37.1,,,269.7631165,10.5,2.94,37.9081,18,5,15.057,269.9631165,37.3,2.94,37.9081,1.7,-2.4,0,306.1,-5.3,3,0,1,1360,1024,1024,1024,300.2,-84.9,44,3.77,3.767,3.764,3.756,0,0,0,,269.7631165,37.1,6,P-GPS,
996100,7/16/2020 17:19,41.98728974,21.48618627,37.1,,,269.7631165,10.5,2.94,38.1857,18,5,15.057,269.9631165,37.3,2.94,38.1857,1.7,-2.4,0,306.1,-5.2,2.9,0,1,1362,1024,1024,1024,300.2,-84.9,44,3.77,3.767,3.764,3.756,0,0,0,,269.7631165,37.1,6,P-GPS,
996200,7/16/2020 17:19,41.98729131,21.4861833,37.1,,,269.7631165,10.5,2.94,38.4869,18,5,15.057,269.9631165,37.3,2.94,38.4869,1.7,-2.4,0,306.1,-5,2.9,0,1,1364,1024,1024,1024,300.2,-84.9,44,3.77,3.767,3.764,3.756,0,0,0,,269.7631165,37.1,6,P-GPS,
996300,7/16/2020 17:19,41.98729286,21.48618019,37.1,,,269.7631165,10.5,2.94,38.7966,18,5,15.057,269.9631165,37.3,2.94,38.7966,1.7,-2.4,0,306.2,-4.9,2.9,0,1,1364,1024,1024,1024,300.2,-84.9,44,3.77,3.767,3.764,3.756,0,0,0,,269.7631165,37.1,6,P-GPS,
996400,7/16/2020 17:19,41.98729443,21.4861772,37.1,,,269.7631165,10.5,2.94,39.099,18,5,15.057,269.9631165,37.3,2.94,39.099,1.7,-2.4,0,306.2,-5,3,0,1,1364,1024,1024,1024,300.2,-84.9,44,3.77,3.767,3.764,3.756,0,0,0,,269.7631165,37.1,6,P-GPS,
996500,7/16/2020 17:19,41.98729611,21.48617414,37.1,,,269.7631165,10.5,2.94,39.4128,18,5,15.057,269.9631165,37.3,2.94,39.4128,1.7,-2.4,0,306.2,-5.1,2.9,0,1,1365,1024,1024,1024,300.2,-84.9,44,3.77,3.767,3.764,3.756,0,0,0,,269.7631165,37.1,6,P-GPS,
996600,7/16/2020 17:19,41.98729769,21.48617114,37.1,,,269.7631165,10.5,2.94,39.7169,18,5,15.057,269.9631165,37.3,2.94,39.7169,1.8,-2.4,0,306.2,-5.3,3,0,1,1369,1024,1024,1024,300.2,-84.9,44,3.77,3.767,3.764,3.756,0,0,0,,269.7631165,37.1,6,P-GPS,
996700,7/16/2020 17:19,41.98729919,21.48616812,37.1,,,269.7631165,10.5,3,40.0178,18,5,15.057,269.9631165,37.3,3,40.0178,1.8,-2.4,0,306.1,-5.4,2.9,0,1,1369,1024,1024,1024,300.2,-84.9,44,3.77,3.767,3.764,3.756,0,0,0,,269.7631165,37.1,6,P-GPS,
996800,7/16/2020 17:19,41.98730078,21.4861651,37.1,,,269.7631165,10.5,3,40.323,18,5,15.058,269.9631165,37.3,3,40.323,1.8,-2.4,0,306,-5.6,2.7,0,1,1370,1024,1024,1024,300.2,-84.9,44,3.77,3.767,3.764,3.757,0,0,0,,269.7631165,37.1,6,P-GPS,
996900,7/16/2020 17:19,41.98730229,21.48616207,37.1,,,269.7631165,10.5,3,40.625,18,5,15.058,269.9631165,37.3,3,40.625,1.8,-2.4,0,306.1,-5.6,2.7,0,1,1371,1024,1024,1024,300.2,-84.9,44,3.77,3.767,3.764,3.757,0,0,0,,269.7631165,37.1,6,P-GPS,
997000,7/16/2020 17:19,41.98730388,21.48615903,37.1,,,269.7631165,10.5,3.08,40.9322,18,5,15.058,269.9631165,37.3,3.08,40.9322,1.8,-2.5,0,306.1,-5.7,2.9,0,1,1370,1024,1024,1024,300.2,-84.9,44,3.77,3.767,3.764,3.757,0,0,0,,269.7631165,37.1,6,P-GPS,
997100,7/16/2020 17:19,41.98730555,21.48615586,37.1,,,269.7631165,10.5,3.08,41.2533,18,5,15.058,269.9631165,37.3,3.08,41.2533,1.8,-2.5,0,306.1,-5.7,3,0,1,1369,1024,1024,1024,300.2,-84.9,44,3.77,3.767,3.764,3.757,0,0,0,,269.7631165,37.1,6,P-GPS,
997200,7/16/2020 17:19,41.98730715,21.48615278,37.1,,,269.7631165,10.5,3.08,41.5642,18,5,15.058,269.9631165,37.3,3.08,41.5642,1.8,-2.5,0,306.1,-5.7,3,0,1,1369,1024,1024,1024,300.2,-84.9,44,3.77,3.767,3.764,3.757,0,0,0,,269.7631165,37.1,6,P-GPS,
997300,7/16/2020 17:19,41.98730865,21.4861498,37.1,,,269.7631165,10.5,3.08,41.8611,18,5,15.058,269.9631165,37.3,3.08,41.8611,1.8,-2.5,0,306.1,-5.7,2.9,0,1,1369,1024,1024,1024,300.2,-84.9,44,3.77,3.767,3.764,3.757,0,0,0,,269.7631165,37.1,6,P-GPS,
997400,7/16/2020 17:19,41.98731025,21.48614671,37.1,,,269.7631165,10.5,3.08,42.1729,18,5,15.058,269.9631165,37.3,3.08,42.1729,1.8,-2.5,0,306.1,-5.6,3,0,1,1369,1024,1024,1024,300.2,-84.9,44,3.77,3.767,3.764,3.757,0,0,0,,269.7631165,37.1,6,P-GPS,
997500,7/16/2020 17:19,41.98731205,21.48614363,37.1,,,269.7631165,10.5,3.08,42.4955,18,5,15.058,269.9631165,37.3,3.08,42.4955,1.8,-2.5,0,306,-5.6,3,0,1,1370,1024,1024,1024,300.2,-84.9,44,3.77,3.767,3.764,3.757,0,0,0,,269.7631165,37.1,6,P-GPS,
997600,7/16/2020 17:19,41.98731368,21.48614053,37.1,,,269.7631165,10.5,3.08,42.8099,18,5,15.058,269.9631165,37.3,3.08,42.8099,1.8,-2.5,0,306,-5.7,3,0,1,1370,1024,1024,1024,300.2,-84.9,44,3.77,3.767,3.764,3.757,0,0,0,,269.7631165,37.1,6,P-GPS,
997700,7/16/2020 17:19,41.98731527,21.48613736,37.2,,,269.8631165,10.5,3.08,43.1255,18,5,15.058,269.9631165,37.3,3.08,43.1255,1.8,-2.5,0,306.1,-5.7,2.9,0,1,1370,1024,1024,1024,300.2,-84.9,44,3.77,3.767,3.764,3.757,0,0,0,,269.8631165,37.2,6,P-GPS,
997800,7/16/2020 17:19,41.98731691,21.48613424,37.1,,,269.7631165,10.5,3.08,43.4413,18,5,15.058,269.9631165,37.3,3.08,43.4413,1.8,-2.5,0,306,-5.8,2.8,0,1,1370,1024,1024,1024,300.2,-84.9,44,3.771,3.767,3.764,3.756,0,0,0,,269.7631165,37.1,6,P-GPS,
997900,7/16/2020 17:19,41.98731864,21.48613114,37.2,,,269.8631165,10.5,3.08,43.7618,18,5,15.058,269.9631165,37.3,3.08,43.7618,1.8,-2.5,0,306,-5.8,2.8,0,1,1370,1024,1024,1024,300.2,-84.9,44,3.771,3.767,3.764,3.756,0,0,0,,269.8631165,37.2,6,P-GPS,
998000,7/16/2020 17:19,41.98732029,21.486128,37.2,,,269.8631165,10.5,3.14,44.0798,18,5,15.058,269.9631165,37.3,3.14,44.0798,1.9,-2.5,0,306,-5.8,2.7,0,1,1370,1024,1024,1024,300.2,-84.9,44,3.771,3.767,3.764,3.756,0,0,0,,269.8631165,37.2,6,P-GPS,
998100,7/16/2020 17:19,41.98732198,21.4861249,37.2,,,269.8631165,10.5,3.08,44.3975,18,5,15.058,269.9631165,37.3,3.14,44.3975,1.8,-2.5,0,306.1,-5.9,2.6,0,1,1369,1024,1024,1024,300.2,-84.9,44,3.771,3.767,3.764,3.756,0,0,0,,269.8631165,37.2,6,P-GPS,
998200,7/16/2020 17:19,41.98732365,21.48612175,37.1,,,269.7631165,10.5,3.14,44.7174,18,5,15.058,269.9631165,37.3,3.14,44.7174,1.9,-2.5,0,306.1,-5.8,2.7,0,1,1363,1024,1024,1024,300.2,-84.9,44,3.771,3.767,3.764,3.756,0,0,0,,269.7631165,37.1,6,P-GPS,
998300,7/16/2020 17:19,41.98732546,21.48611866,37.1,,,269.7631165,10.5,3.22,45.0421,18,5,15.058,269.9631165,37.3,3.22,45.0421,1.9,-2.6,0,306.1,-5.8,2.7,0,1,1363,1024,1024,1024,300.2,-84.9,44,3.771,3.767,3.764,3.756,0,0,0,,269.7631165,37.1,6,P-GPS,
998400,7/16/2020 17:19,41.98732715,21.48611549,37.1,,,269.7631165,10.5,3.22,45.3643,18,5,15.058,269.9631165,37.3,3.22,45.3643,1.9,-2.6,0,306.1,-5.6,2.7,0,1,1361,1024,1024,1024,300.2,-84.9,44,3.771,3.767,3.764,3.756,0,0,0,,269.7631165,37.1,6,P-GPS,
998500,7/16/2020 17:19,41.98732888,21.48611219,37.1,,,269.7631165,10.5,3.22,45.6982,18,5,15.058,269.9631165,37.3,3.22,45.6982,1.9,-2.6,0,306.1,-5.5,2.8,0,1,1361,1024,1024,1024,300.2,-84.9,44,3.771,3.767,3.764,3.756,0,0,0,,269.7631165,37.1,6,P-GPS,
998600,7/16/2020 17:19,41.98733058,21.486109,37.1,,,269.7631165,10.5,3.22,46.0222,18,5,15.058,269.9631165,37.3,3.22,46.0222,1.9,-2.6,0,306.1,-5.4,2.7,0,1,1362,1024,1024,1024,300.2,-84.9,44,3.771,3.767,3.764,3.756,0,0,0,,269.7631165,37.1,6,P-GPS,
998700,7/16/2020 17:19,41.98733217,21.48610595,37.1,,,269.7631165,10.5,3.22,46.3308,18,5,15.058,269.9631165,37.3,3.22,46.3308,1.9,-2.6,0,306.1,-5.3,2.8,0,1,1361,1024,1024,1024,300.2,-84.9,44,3.771,3.767,3.764,3.756,0,0,0,,269.7631165,37.1,6,P-GPS,
998800,7/16/2020 17:19,41.98733386,21.48610277,37.2,,,269.8631165,10.5,3.22,46.6538,18,5,15.059,269.9631165,37.3,3.22,46.6538,1.9,-2.6,0,306.1,-5,2.9,0,1,1361,1024,1024,1024,300.2,-84.9,44,3.771,3.768,3.764,3.756,0,0,0,,269.8631165,37.2,6,P-GPS,
998900,7/16/2020 17:19,41.98733573,21.48609965,37.2,,,269.8631165,10.5,3.22,46.9839,18,5,15.059,269.9631165,37.3,3.22,46.9839,1.9,-2.6,0,306.1,-4.9,2.9,0,1,1361,1024,1024,1024,300.2,-84.9,44,3.771,3.768,3.764,3.756,0,0,0,,269.8631165,37.2,6,P-GPS,
999000,7/16/2020 17:19,41.98733743,21.48609649,37.2,,,269.8631165,10.5,3.22,47.307,18,5,15.059,269.9631165,37.3,3.22,47.307,1.9,-2.6,0,306.1,-4.9,3,0,1,1361,1024,1024,1024,300.2,-84.9,44,3.771,3.768,3.764,3.756,0,0,0,,269.8631165,37.2,6,P-GPS,
999100,7/16/2020 17:19,41.98733914,21.48609326,37.2,,,269.8631165,10.5,3.22,47.6344,18,5,15.059,269.9631165,37.3,3.22,47.6344,1.9,-2.6,0,306.1,-5,2.9,0,1,1365,1024,1024,1024,300.2,-84.9,44,3.771,3.768,3.764,3.756,0,0,0,,269.8631165,37.2,6,P-GPS,
999200,7/16/2020 17:19,41.98734084,21.4860901,37.2,,,269.8631165,10.5,3.14,47.9572,18,5,15.059,269.9631165,37.3,3.22,47.9572,1.9,-2.5,0,306.1,-5.1,2.8,0,1,1366,1024,1024,1024,300.2,-84.9,44,3.771,3.768,3.764,3.756,0,0,0,,269.8631165,37.2,6,P-GPS,
999300,7/16/2020 17:19,41.98734254,21.48608702,37.2,,,269.8631165,10.5,3.16,48.2737,18,5,15.059,269.9631165,37.3,3.22,48.2737,1.8,-2.6,0,306.1,-5.1,2.7,0,1,1366,1024,1024,1024,300.2,-84.9,44,3.771,3.768,3.764,3.756,0,0,0,,269.8631165,37.2,6,P-GPS,
999400,7/16/2020 17:19,41.98734424,21.48608387,37.2,,,269.8631165,10.5,3.16,48.5956,18,5,15.059,269.9631165,37.3,3.22,48.5956,1.8,-2.6,0,306.1,-5.1,2.8,0,1,1366,1024,1024,1024,300.2,-84.9,44,3.771,3.768,3.764,3.756,0,0,0,,269.8631165,37.2,6,P-GPS,
999500,7/16/2020 17:19,41.98734592,21.48608074,37.2,,,269.8631165,10.5,3.16,48.9153,18,5,15.059,269.9631165,37.3,3.22,48.9153,1.8,-2.6,0,306.1,-5.2,2.8,0,1,1366,1024,1024,1024,300.2,-84.9,44,3.771,3.768,3.764,3.756,0,0,0,,269.8631165,37.2,6,P-GPS,
999600,7/16/2020 17:19,41.98734762,21.48607758,37.1,,,269.7631165,10.5,3.16,49.2372,18,5,15.059,269.9631165,37.3,3.22,49.2372,1.8,-2.6,0,306.1,-5.2,3,0,1,1368,1024,1024,1024,300.2,-84.9,44,3.771,3.768,3.764,3.756,0,0,0,,269.7631165,37.1,6,P-GPS,
999700,7/16/2020 17:19,41.98734947,21.48607443,37.1,,,269.7631165,10.5,3.22,49.5684,18,5,15.059,269.9631165,37.3,3.22,49.5684,1.9,-2.6,0,306.1,-5.2,3,0,1,1366,1024,1024,1024,300.2,-84.9,44,3.771,3.768,3.764,3.756,0,0,0,,269.7631165,37.1,6,P-GPS,
999800,7/16/2020 17:19,41.98735119,21.48607128,37.1,,,269.7631165,10.5,3.22,49.8916,18,5,15.056,269.9631165,37.3,3.22,49.8916,1.9,-2.6,0,306.1,-5.2,3,0,1,1366,1024,1024,1024,300.2,-84.9,44,3.769,3.767,3.764,3.756,0,0,0,,269.7631165,37.1,6,P-GPS,
999900,7/16/2020 17:19,41.98735302,21.48606798,37.2,,,269.8631165,10.5,3.16,50.2321,18,5,15.056,269.9631165,37.3,3.22,50.2321,1.8,-2.6,0,306.1,-5.2,3,0,1,1368,1024,1024,1024,300.2,-84.9,44,3.769,3.767,3.764,3.756,0,0,0,,269.8631165,37.2,6,P-GPS,
1000000,7/16/2020 17:19,41.98735476,21.48606481,37.2,,,269.8631165,10.5,3.16,50.5572,18,5,15.056,269.9631165,37.3,3.22,50.5572,1.8,-2.6,0,306.1,-5.2,3,0,1,1369,1024,1024,1024,300.2,-84.9,44,3.769,3.767,3.764,3.756,0,0,0,,269.8631165,37.2,6,P-GPS,
1000100,7/16/2020 17:19,41.98735642,21.4860617,37.1,,,269.7631165,10.5,3.16,50.8743,18,5,15.056,269.9631165,37.3,3.22,50.8743,1.8,-2.6,0,306.1,-5.3,3,0,1,1369,1024,1024,1024,300.2,-84.9,44,3.769,3.767,3.764,3.756,0,0,0,,269.7631165,37.1,6,P-GPS,
